{"107989":{"name":"Afghan, Tajik","rop3":"107989","locations":[{"population":"10585000","lng":"62.1461","lat":"31.1562","level":"admin2","label":"Chakhansur, Nimroz, Afghanistan","grid_id":"100000268"},{"population":"400000","lng":"61.4938","lat":"31.0435","level":"admin2","label":"Zabol, Sistan and Baluchestan, Iran","grid_id":"100222676"},{"population":"800","lng":"76","lat":"45","level":"admin2","label":"Balkhashskiy, Almaty, Kazakhstan","grid_id":"100233176"}],"peopleid3":"14372"},"100096":{"name":"Afshari","rop3":"100096","locations":[{"population":"15000","lng":"69.2898","lat":"34.448","level":"admin2","label":"Bagrami, Kabul, Afghanistan","grid_id":"100000174"},{"population":"378000","lng":"48.7337","lat":"36.6657","level":"admin2","label":"Zanjan, Zanjan, Iran","grid_id":"100222716"}],"peopleid3":"19409"},"118270":{"name":"Aimaq","rop3":"118270","locations":[{"population":"1595000","lng":"63.1286","lat":"35.005","level":"admin2","label":"Qala-I-Naw, Badghis, Afghanistan","grid_id":"100000055"},{"population":"235000","lng":"52.7998","lat":"36.2473","level":"admin2","label":"Savadkuh, Mazandaran, Iran","grid_id":"100222641"},{"population":"6300","lng":"66.741","lat":"30.1691","level":"admin2","label":"Quetta, Baluchistan, Pakistan","grid_id":"100259991"},{"population":"1000","lng":"68.78","lat":"38.59","level":"admin2","label":"Rudaki, Dushanbe, Tajikistan","grid_id":"100350537"},{"population":"249000","lng":"61.855","lat":"37.565","level":"admin2","label":"Sarakhs, Razavi Khorasan, Iran","grid_id":"100222663"}],"peopleid3":"21454"},"111334":{"name":"Ansari","rop3":"111334","locations":[{"population":"2400","lng":"69.3198","lat":"34.5478","level":"admin2","label":"Dih Sabz, Kabul, Afghanistan","grid_id":"100000176"},{"population":"1241000","lng":"89.6303","lat":"24.6268","level":"admin2","label":"Sirajganj, Rajshahi, Bangladesh","grid_id":"100018573"},{"population":"10555000","lng":"78.9107","lat":"29.6726","level":"admin2","label":"Garhwal, Uttarakhand, India","grid_id":"100220022"},{"population":"42000","lng":"81.8446","lat":"28.5545","level":"admin2","label":"Bheri, Mid-Western, Nepal","grid_id":"100255743"},{"population":"4664000","lng":"74.3774","lat":"31.3811","level":"admin2","label":"Lahore, Punjab, Pakistan","grid_id":"100260009"},{"population":"1000","lng":"81.5555","lat":"7.22557","level":"admin2","label":"Ampara, Ampara, Sri Lanka","grid_id":"100241056"}],"peopleid3":"16221"},"109734":{"name":"Arab, Tajiki","rop3":"109734","locations":[{"population":"18000","lng":"66.8042","lat":"36.9447","level":"admin2","label":"Dawlat abad, Balkh, Afghanistan","grid_id":"100000072"},{"population":"1400","lng":"68.1508","lat":"37.3458","level":"admin2","label":"Shahrituz, Khatlon, Tajikistan","grid_id":"100350563"}],"peopleid3":"15202"},"111360":{"name":"Arora (Hindu traditions)","rop3":"111360","locations":[{"population":"1500","lng":"70.9806","lat":"36.1872","level":"admin2","label":"Zebak, Badakhshan, Afghanistan","grid_id":"100000048"},{"population":"4060000","lng":"76.4029","lat":"29.2595","level":"admin2","label":"Jind, Haryana, India","grid_id":"100219556"},{"population":"6900","lng":"70.4857","lat":"28.4713","level":"admin2","label":"Bahawalpur, Punjab, Pakistan","grid_id":"100260005"}],"peopleid3":"16239"},"110770":{"name":"Baloch, Western","rop3":"110770","locations":[{"population":"467000","lng":"63.2018","lat":"30.2414","level":"admin2","label":"Disho, Hilmand, Afghanistan","grid_id":"100000137"},{"population":"750000","lng":"60.6674","lat":"28.7508","level":"admin2","label":"Khash, Sistan and Baluchestan, Iran","grid_id":"100222673"},{"population":"6500","lng":"68.75","lat":"38.57","level":"admin2","label":"Rudaki, Dushanbe, Tajikistan","grid_id":"100350537"},{"population":"50000","lng":"62.3596","lat":"37.3684","level":"admin1","label":"Mary, Turkmenistan","grid_id":"100350965"}],"peopleid3":"15356"},"115168":{"name":"Bania (Muslim traditions)","rop3":"115168","locations":[{"population":"6400","lng":"69.4353","lat":"34.3758","level":"admin2","label":"Khaki Jabar, Kabul, Afghanistan","grid_id":"100000181"}],"peopleid3":"19423"},"111696":{"name":"Brahmin","rop3":"111696","locations":[{"population":"3700","lng":"69.3925","lat":"34.2942","level":"admin2","label":"Khaki Jabar, Kabul, Afghanistan","grid_id":"100000181"},{"population":"590000","lng":"90.4399","lat":"24.0428","level":"admin2","label":"Gazipur, Dhaka, Bangladesh","grid_id":"100018541"},{"population":"6100","lng":"89.6463","lat":"27.4631","level":"admin2","label":"Chang, Thimphu, Bhutan","grid_id":"100041283"},{"population":"58787000","lng":"86.0592","lat":"25.8219","level":"admin2","label":"Samastipur, Bihar, India","grid_id":"100219475"},{"population":"3213000","lng":"84.7756","lat":"27.8611","level":"admin2","label":"Bagmati, Central, Nepal","grid_id":"100255735"},{"population":"7000","lng":"69.1119","lat":"27.5569","level":"admin2","label":"Sukkur, Sind, Pakistan","grid_id":"100260018"},{"population":"107000","lng":"80.23","lat":"9.53823","level":"admin2","label":"Poonakary, Kilinochchi, Sri Lanka","grid_id":"100241237"}],"peopleid3":"16521"},"101653":{"name":"Brahui","rop3":"101653","locations":[{"population":"322000","lng":"64.7369","lat":"30.0908","level":"admin2","label":"Reg, Kandahar, Afghanistan","grid_id":"100000197"},{"population":"24000","lng":"62.6627","lat":"27.0848","level":"admin2","label":"Saravan, Sistan and Baluchestan, Iran","grid_id":"100222675"},{"population":"2824000","lng":"65.5806","lat":"28.4335","level":"admin2","label":"Kalat, Baluchistan, Pakistan","grid_id":"100259988"},{"population":"1200","lng":"61.8566","lat":"37.5957","level":"admin2","label":"Sarakhs, Razavi Khorasan, Iran","grid_id":"100222663"}],"peopleid3":"10959"},"111780":{"name":"Changgar","rop3":"111780","locations":[{"population":"3100","lng":"69.6336","lat":"34.4708","level":"admin2","label":"Surobi, Kabul, Afghanistan","grid_id":"100000187"},{"population":"2700","lng":"76.7676","lat":"31.871","level":"admin2","label":"Mandi, Himachal Pradesh, India","grid_id":"100219577"},{"population":"360000","lng":"74.3751","lat":"31.3811","level":"admin2","label":"Lahore, Punjab, Pakistan","grid_id":"100260009"}],"peopleid3":"16585"},"102467":{"name":"Darwazi","rop3":"102467","locations":[{"population":"16000","lng":"70.7261","lat":"38.0596","level":"admin2","label":"Darwaz, Badakhshan, Afghanistan","grid_id":"100000037"}],"peopleid3":"11510"},"114916":{"name":"Deaf","rop3":"114916","locations":[{"population":"389000","lng":"69.1366","lat":"34.5325","level":"admin2","label":"Kabul City, Kabul, Afghanistan","grid_id":"100000179"},{"population":"219000","lng":"3.5462","lat":"36.4762","level":"admin2","label":"Zbarbar|El Isseri, Bouira, Algeria","grid_id":"100385630"},{"population":"76000","lng":"49.8123","lat":"40.3988","level":"admin2","label":"Bak\u0131, Absheron, Azerbaijan","grid_id":"100005735"},{"population":"1234000","lng":"90.7781","lat":"24.3386","level":"admin2","label":"Kishoreganj, Dhaka, Bangladesh","grid_id":"100018544"},{"population":"5800","lng":"89.6626","lat":"27.4459","level":"admin2","label":"Chang, Thimphu, Bhutan","grid_id":"100041283"},{"population":"125000","lng":"104.912","lat":"11.5507","level":"admin2","label":"Phnom Penh, Phnom Penh, Cambodia","grid_id":"100235323"},{"population":"8700","lng":"43.2308","lat":"-11.7362","level":"admin1","label":"Njaz\u00eddja, Comoros","grid_id":"100055705"},{"population":"9900","lng":"43.1372","lat":"11.5619","level":"admin2","label":"Djibouti, Djibouti, Djibouti","grid_id":"100072545"},{"population":"24000","lng":"-16.6833","lat":"13.4632","level":"admin2","label":"Kanifing, Banjul, Gambia","grid_id":"100131741"},{"population":"131000","lng":"-13.674","lat":"9.553","level":"admin2","label":"Conakry, Conakry, Guinea","grid_id":"100131333"},{"population":"420000","lng":"51.0996","lat":"35.6922","level":"admin2","label":"Shahriyar, Alborz, Iran","grid_id":"100222453"},{"population":"301000","lng":"44.4896","lat":"33.3173","level":"admin2","label":"Adhamiya, Baghdad, Iraq","grid_id":"100222791"},{"population":"17000","lng":"34.7482","lat":"31.7349","level":"admin2","label":"Gaza ash Shamaliyah, Gaza, Palestina","grid_id":"100314680"},{"population":"253000","lng":"139.079","lat":"36.0221","level":"admin2","label":"Chichibu, Saitama, Japan","grid_id":"100232745"},{"population":"51000","lng":"36.0829","lat":"31.8202","level":"admin2","label":"Mowaqqar, Amman, Jordan","grid_id":"100231251"},{"population":"258000","lng":"125.763","lat":"39.0636","level":"admin2","label":"NULL","grid_id":"100309832"},{"population":"73000","lng":"104.518","lat":"18.387","level":"admin2","label":"Viengthong, Bolikhamxai, Laos","grid_id":"100238861"},{"population":"34000","lng":"17.573","lat":"29.512","level":"admin1","label":"Surt, Libya","grid_id":"100241000"},{"population":"2600","lng":"73.5084","lat":"4.17319","level":"admin0","label":"Maldives","grid_id":"100245356"},{"population":"203000","lng":"-8.00136","lat":"12.651","level":"admin2","label":"Bamako, Bamako, Mali","grid_id":"100247341"},{"population":"46000","lng":"-15.9764","lat":"18.1247","level":"admin2","label":"Nouakchott, Nouakchott, Mauritania","grid_id":"100249799"},{"population":"2700","lng":"45.2305","lat":"-12.7808","level":"admin1","label":"Mamoudzou, Mayotte","grid_id":"100253450"},{"population":"16000","lng":"107.528","lat":"48.6852","level":"admin2","label":"Mandal, Selenge, Mongolia","grid_id":"100249127"},{"population":"277000","lng":"-7.69607","lat":"32.139","level":"admin2","label":"El Kela\u00e2 des Sraghna, Marrakech - Tensift - Al Haouz, Morocco","grid_id":"100241797"},{"population":"218000","lng":"85.4066","lat":"27.6642","level":"admin2","label":"Bagmati, Central, Nepal","grid_id":"100255735"},{"population":"242000","lng":"2.0787","lat":"13.5291","level":"admin2","label":"Niamey, Niamey, Niger","grid_id":"100253642"},{"population":"26000","lng":"58.5083","lat":"23.6208","level":"admin2","label":"Muttrah, Muscat, Oman","grid_id":"100259976"},{"population":"1652000","lng":"71.9247","lat":"34.2856","level":"admin2","label":"Mardan, N.W.F.P., Pakistan","grid_id":"100260002"},{"population":"159000","lng":"45.3319","lat":"2.04512","level":"admin2","label":"Mogadisho, Banaadir, Somalia","grid_id":"100341927"},{"population":"438000","lng":"32.5264","lat":"15.5839","level":"admin2","label":"Khartoum, Khartoum, Sudan","grid_id":"100340312"},{"population":"77000","lng":"68.7873","lat":"38.6027","level":"admin2","label":"Rudaki, Dushanbe, Tajikistan","grid_id":"100350537"},{"population":"349000","lng":"100.611","lat":"13.712","level":"admin2","label":"Suan Luang, Bangkok Metropolis, Thailand","grid_id":"100343733"},{"population":"59000","lng":"10.0335","lat":"36.4956","level":"admin2","label":"Bir Mchergua, Zaghouan, Tunisia","grid_id":"100351845"},{"population":"422000","lng":"28.8555","lat":"41.0267","level":"admin2","label":"Ba\u011fc\u0131lar, Istanbul, Turkey","grid_id":"100352365"},{"population":"45000","lng":"58.4177","lat":"37.915","level":"admin2","label":"Quchan, Razavi Khorasan, Iran","grid_id":"100222661"},{"population":"167000","lng":"69.3292","lat":"41.2466","level":"admin2","label":"Tashkent City, Tashkent City, Uzbekistan","grid_id":"100367574"},{"population":"38000","lng":"35.2342","lat":"31.798","level":"admin2","label":"Jerusalem, West Bank, Palestina","grid_id":"100314687"},{"population":"6000","lng":"-13.1909","lat":"27.1504","level":"admin2","label":"Tah, La\u00e2youne - Boujdour - Sakia El Hamra, Morocco","grid_id":"100241794"},{"population":"298000","lng":"44.1956","lat":"15.3438","level":"admin2","label":"Al Wahdah, Amanat Al Asimah, Yemen","grid_id":"100380225"}],"peopleid3":"19007"},"105087":{"name":"Garwi, Kohistani","rop3":"105087","locations":[{"population":"1900","lng":"71.4485","lat":"35.0121","level":"admin2","label":"Dangam, Kunar, Afghanistan","grid_id":"100000223"}],"peopleid3":"12741"},"112971":{"name":"Gujar (Muslim traditions)","rop3":"112971","locations":[{"population":"18000","lng":"71.4879","lat":"35.2484","level":"admin2","label":"Nali, Kunar, Afghanistan","grid_id":"100000227"},{"population":"464000","lng":"78.0034","lat":"29.9274","level":"admin2","label":"Hardwar, Uttarakhand, India","grid_id":"100220023"},{"population":"4937000","lng":"73.4749","lat":"31.5402","level":"admin2","label":"Lahore, Punjab, Pakistan","grid_id":"100260009"}],"peopleid3":"17549"},"103743":{"name":"Hazara","rop3":"103743","locations":[{"population":"3891000","lng":"66.9411","lat":"34.3504","level":"admin2","label":"Waras, Bamyan, Afghanistan","grid_id":"100000085"},{"population":"16000","lng":"153.127","lat":"-27.6333","level":"admin2","label":"Logan, Queensland, Australia","grid_id":"100003133"},{"population":"392000","lng":"59.6766","lat":"35.6905","level":"admin2","label":"Fariman, Razavi Khorasan, Iran","grid_id":"100222652"},{"population":"263000","lng":"66.9203","lat":"30.0776","level":"admin2","label":"Quetta, Baluchistan, Pakistan","grid_id":"100259991"},{"population":"1700","lng":"68.76","lat":"38.57","level":"admin2","label":"Rudaki, Dushanbe, Tajikistan","grid_id":"100350537"},{"population":"100000","lng":"55.2836","lat":"25.2322","level":"admin2","label":"Sector 3, Dubai, United Arab Emirates","grid_id":"100001584"}],"peopleid3":"12076"},"116135":{"name":"Ishkashimi","rop3":"116135","locations":[{"population":"3100","lng":"71.5632","lat":"36.7135","level":"admin2","label":"Ishkashim, Badakhshan, Afghanistan","grid_id":"100000039"},{"population":"1700","lng":"71.6118","lat":"36.7292","level":"admin2","label":"Ishkoshim, Gorno-Badakhshan, Tajikistan","grid_id":"100350539"}],"peopleid3":"20542"},"104950":{"name":"Kalash (Chitrali)","rop3":"104950","locations":[{"population":"10000","lng":"70.2126","lat":"36.6532","level":"admin2","label":"Kishim, Badakhshan, Afghanistan","grid_id":"100000042"},{"population":"28000","lng":"72.2237","lat":"36.1776","level":"admin2","label":"Malakand, N.W.F.P., Pakistan","grid_id":"100260001"}],"peopleid3":"19437"},"104638":{"name":"Karakalpak","rop3":"104638","locations":[{"population":"3200","lng":"67.1076","lat":"36.6689","level":"admin2","label":"Mazar-i-Sharif, Balkh, Afghanistan","grid_id":"100000078"},{"population":"54000","lng":"57.3142","lat":"37.4768","level":"admin2","label":"Jajarm, North Khorasan, Iran","grid_id":"100222645"},{"population":"3500","lng":"62.1507","lat":"45.8491","level":"admin2","label":"Kazalinskiy, Qyzylorda, Kazakhstan","grid_id":"100233303"},{"population":"1300","lng":"72.9788","lat":"40.9332","level":"admin2","label":"Suzak, Jalal-Abad, Kyrgyzstan","grid_id":"100235169"},{"population":"1500","lng":"37.6132","lat":"55.6998","level":"admin2","label":"Central, Moscow City, Russia","grid_id":"100318917"},{"population":"74000","lng":"44.056","lat":"39.9289","level":"admin2","label":"Merkez, I\u011fd\u0131r, Turkey","grid_id":"100352346"},{"population":"5700","lng":"59.7296","lat":"42.254","level":"admin2","label":"NULL","grid_id":"100367480"},{"population":"731000","lng":"59.8353","lat":"43.0552","level":"admin2","label":"Chimboy, Karakalpakstan, Uzbekistan","grid_id":"100367469"}],"peopleid3":"12526"},"104791":{"name":"Kazakh","rop3":"104791","locations":[{"population":"3200","lng":"69.123","lat":"36.694","level":"admin2","label":"Khan Abad, Kunduz, Afghanistan","grid_id":"100000235"},{"population":"2300","lng":"49.8403","lat":"40.408","level":"admin2","label":"Bak\u0131, Absheron, Azerbaijan","grid_id":"100005735"},{"population":"2300","lng":"31.2494","lat":"53.8937","level":"admin2","label":"Chavusy, Mahilyow, Belarus","grid_id":"100024849"},{"population":"2600","lng":"3.77382","lat":"51.0664","level":"admin2","label":"Oost-Vlaanderen, Vlaanderen, Belgium","grid_id":"100017371"},{"population":"1000","lng":"-79.3813","lat":"43.651","level":"admin2","label":"Toronto, Ontario, Canada","grid_id":"100041653"},{"population":"1880000","lng":"83.2709","lat":"43.4298","level":"admin2","label":"Ili Kazakh, Xinjiang Uygur, China","grid_id":"100051044"},{"population":"2000","lng":"14.5683","lat":"50.1413","level":"admin2","label":"Praha 19, Prague, Czech Republic","grid_id":"100056098"},{"population":"5100","lng":"13.3591","lat":"52.5083","level":"admin2","label":"Berlin, Berlin, Germany","grid_id":"100056291"},{"population":"6300","lng":"54.0888","lat":"37.2464","level":"admin2","label":"Torkaman, Golestan, Iran","grid_id":"100222534"},{"population":"1300","lng":"12.4469","lat":"41.8757","level":"admin2","label":"Roma, Lazio, Italy","grid_id":"100223034"},{"population":"12059000","lng":"68.9941","lat":"48.2874","level":"admin2","label":"Ulytauskiy, Qaraghandy, Kazakhstan","grid_id":"100233282"},{"population":"12000","lng":"126.945","lat":"37.5601","level":"admin2","label":"Seodaemun, Seoul, South Korea","grid_id":"100238807"},{"population":"27000","lng":"71.6186","lat":"42.7519","level":"admin2","label":"Manas, Talas, Kyrgyzstan","grid_id":"100235188"},{"population":"500","lng":"25.2694","lat":"54.6829","level":"admin2","label":"Vilniaus, Vilniaus, Lithuania","grid_id":"100241445"},{"population":"116000","lng":"90.1328","lat":"48.3453","level":"admin2","label":"Tolbo, Bayan-\u00d6lgiy, Mongolia","grid_id":"100248897"},{"population":"661000","lng":"96.2368","lat":"52.4456","level":"admin2","label":"Todzhinskiy rayon, Tuva, Russia","grid_id":"100319915"},{"population":"1000","lng":"-3.76939","lat":"40.373","level":"admin2","label":"Madrid, Comunidad de Madrid, Spain","grid_id":"100074627"},{"population":"800","lng":"69.3772","lat":"40.1525","level":"admin2","label":"Spitamen, Leninabad, Tajikistan","grid_id":"100350581"},{"population":"8500","lng":"41.6987","lat":"40.9682","level":"admin2","label":"Yusufeli, Artvin, Turkey","grid_id":"100352047"},{"population":"29000","lng":"54.274","lat":"40.3973","level":"admin1","label":"Balkan, Turkmenistan","grid_id":"100350963"},{"population":"5000","lng":"30.6021","lat":"50.4857","level":"admin2","label":"NULL","grid_id":"100363621"},{"population":"5500","lng":"-122.206","lat":"47.3797","level":"admin2","label":"King, Washington, United States","grid_id":"100367224"},{"population":"828000","lng":"60.4771","lat":"43.0917","level":"admin2","label":"NULL","grid_id":"100367478"}],"peopleid3":"12599"},"113631":{"name":"Khatri (Sikh traditions)","rop3":"113631","locations":[{"population":"2700","lng":"69.1432","lat":"34.3215","level":"admin2","label":"Musayi, Kabul, Afghanistan","grid_id":"100000183"},{"population":"301000","lng":"75.1479","lat":"31.8557","level":"admin2","label":"Gurdaspur, Punjab, India","grid_id":"100219840"}],"peopleid3":"18125"},"103535":{"name":"Khik (Wakhi)","rop3":"103535","locations":[{"population":"21000","lng":"72.8509","lat":"36.9654","level":"admin2","label":"Wakhan, Badakhshan, Afghanistan","grid_id":"100000047"},{"population":"14000","lng":"75.3877","lat":"37.602","level":"admin2","label":"Kashgar, Xinjiang Uygur, China","grid_id":"100051046"},{"population":"66000","lng":"74.3117","lat":"35.9195","level":"admin2","label":"Northern Areas, Northern Areas, Pakistan","grid_id":"100260004"},{"population":"20000","lng":"72.8136","lat":"37.2777","level":"admin2","label":"Ishkoshim, Gorno-Badakhshan, Tajikistan","grid_id":"100350539"}],"peopleid3":"18693"},"101922":{"name":"Kurd, Central","rop3":"101922","locations":[{"population":"4000","lng":"69.1952","lat":"34.5155","level":"admin2","label":"Kabul City, Kabul, Afghanistan","grid_id":"100000179"},{"population":"3387000","lng":"46.6229","lat":"35.7905","level":"admin2","label":"Divandarreh, Kordestan, Iran","grid_id":"100222608"},{"population":"4652000","lng":"45.0287","lat":"35.6587","level":"admin2","label":"Sulaymaniya, As-Sulaymaniyah, Iraq","grid_id":"100222780"},{"population":"6300","lng":"47.7422","lat":"29.2551","level":"admin2","label":"Al Zubair, Al-Basrah, Iraq","grid_id":"100222750"},{"population":"15000","lng":"-86.7464","lat":"36.1911","level":"admin2","label":"Davidson, Tennessee, United States","grid_id":"100366701"}],"peopleid3":"11126"},"105550":{"name":"Kyrgyz","rop3":"105550","locations":[{"population":"1300","lng":"74.2469","lat":"37.0646","level":"admin2","label":"Wakhan, Badakhshan, Afghanistan","grid_id":"100000047"},{"population":"1500","lng":"-79.4363","lat":"43.6818","level":"admin2","label":"Toronto, Ontario, Canada","grid_id":"100041653"},{"population":"240000","lng":"74.4753","lat":"39.1208","level":"admin2","label":"Kizilsu Kirghiz, Xinjiang Uygur, China","grid_id":"100051048"},{"population":"900","lng":"12.417","lat":"41.9285","level":"admin2","label":"Roma, Lazio, Italy","grid_id":"100223034"},{"population":"32000","lng":"75.837","lat":"43.5021","level":"admin2","label":"Zhambylskiy, Almaty, Kazakhstan","grid_id":"100233189"},{"population":"5100","lng":"127.068","lat":"37.551","level":"admin2","label":"Dong-daemun, Seoul, South Korea","grid_id":"100238790"},{"population":"4698000","lng":"74.2923","lat":"41.7331","level":"admin2","label":"Jumgal, Naryn, Kyrgyzstan","grid_id":"100235174"},{"population":"105000","lng":"37.5647","lat":"55.6991","level":"admin2","label":"Western, Moscow City, Russia","grid_id":"100318925"},{"population":"70000","lng":"73.9391","lat":"38.3522","level":"admin2","label":"Murghob, Gorno-Badakhshan, Tajikistan","grid_id":"100350540"},{"population":"1700","lng":"41.3923","lat":"40.9682","level":"admin2","label":"Yusufeli, Artvin, Turkey","grid_id":"100352047"},{"population":"1400","lng":"63.7458","lat":"38.9258","level":"admin2","label":"Olot, Bukhoro, Uzbekistan","grid_id":"100367432"},{"population":"1000","lng":"30.648","lat":"50.4388","level":"admin2","label":"NULL","grid_id":"100363621"},{"population":"511000","lng":"71.6802","lat":"40.9884","level":"admin2","label":"Namangan, Namangan, Uzbekistan","grid_id":"100367508"}],"peopleid3":"12933"},"106706":{"name":"Moghal","rop3":"106706","locations":[{"population":"2300","lng":"62.2759","lat":"34.2363","level":"admin2","label":"Guzara, Hirat, Afghanistan","grid_id":"100000154"},{"population":"41000","lng":"90.9649","lat":"24.2593","level":"admin2","label":"Kishoreganj, Dhaka, Bangladesh","grid_id":"100018544"},{"population":"1745000","lng":"79.4273","lat":"28.7199","level":"admin2","label":"Bareilly, Uttar Pradesh, India","grid_id":"100219956"},{"population":"2000","lng":"82.4651","lat":"28.3446","level":"admin2","label":"Rapti, Mid-Western, Nepal","grid_id":"100255745"},{"population":"1306000","lng":"73.2254","lat":"33.4348","level":"admin2","label":"Rawalpindi, Punjab, Pakistan","grid_id":"100260011"},{"population":"1100","lng":"81.5554","lat":"7.22531","level":"admin2","label":"Ampara, Ampara, Sri Lanka","grid_id":"100241056"}],"peopleid3":"13761"},"106912":{"name":"Munji","rop3":"106912","locations":[{"population":"7000","lng":"70.8574","lat":"35.7931","level":"admin2","label":"Kuran Wa Munjan, Badakhshan, Afghanistan","grid_id":"100000043"}],"peopleid3":"13878"},"113164":{"name":"Mussali","rop3":"113164","locations":[{"population":"3200","lng":"69.0953","lat":"34.4222","level":"admin2","label":"Chahar Asyab, Kabul, Afghanistan","grid_id":"100000175"},{"population":"10000","lng":"72.7007","lat":"23.0849","level":"admin2","label":"Ahmadabad, Gujarat, India","grid_id":"100219516"},{"population":"2427000","lng":"72.8222","lat":"32.1903","level":"admin2","label":"Sargodha, Punjab, Pakistan","grid_id":"100260012"}],"peopleid3":"17714"},"103257":{"name":"Narisati, Arandui","rop3":"103257","locations":[{"population":"39000","lng":"71.5381","lat":"35.2205","level":"admin2","label":"Nali, Kunar, Afghanistan","grid_id":"100000227"}],"peopleid3":"11835"},"101097":{"name":"Nuristani (Narisati)","rop3":"101097","locations":[{"population":"144000","lng":"70.7524","lat":"35.4805","level":"admin2","label":"Wama, Nuristan, Afghanistan","grid_id":"100000277"},{"population":"44000","lng":"72.2162","lat":"36.1717","level":"admin2","label":"Malakand, N.W.F.P., Pakistan","grid_id":"100260001"}],"peopleid3":"10703"},"100556":{"name":"Nuristani, Ashkuni","rop3":"100556","locations":[{"population":"48000","lng":"70.5923","lat":"35.117","level":"admin2","label":"Nuristan, Nuristan, Afghanistan","grid_id":"100000276"}],"peopleid3":"10453"},"103472":{"name":"Nuristani, Grangali","rop3":"103472","locations":[{"population":"11000","lng":"70.7094","lat":"34.8761","level":"admin2","label":"Chapa Dara, Kunar, Afghanistan","grid_id":"100000221"}],"peopleid3":"11936"},"104545":{"name":"Nuristani, Kamviri","rop3":"104545","locations":[{"population":"22000","lng":"71.3234","lat":"35.4096","level":"admin2","label":"Kamdesh, Nuristan, Afghanistan","grid_id":"100000274"}],"peopleid3":"12482"},"106126":{"name":"Nuristani, Malakhel","rop3":"106126","locations":[{"population":"3200","lng":"69.0192","lat":"34.1317","level":"admin2","label":"Puli Alam, Logar, Afghanistan","grid_id":"100000247"}],"peopleid3":"13431"},"108147":{"name":"Nuristani, Prasuni","rop3":"108147","locations":[{"population":"9700","lng":"70.9281","lat":"35.4495","level":"admin2","label":"Wama, Nuristan, Afghanistan","grid_id":"100000277"}],"peopleid3":"14461"},"110188":{"name":"Nuristani, Tregami","rop3":"110188","locations":[{"population":"4200","lng":"71.1198","lat":"35.0073","level":"admin2","label":"Asad abad, Kunar, Afghanistan","grid_id":"100000219"}],"peopleid3":"15575"},"110623":{"name":"Nuristani, Waigeli","rop3":"110623","locations":[{"population":"32000","lng":"71.0595","lat":"35.1778","level":"admin2","label":"Waygal, Nuristan, Afghanistan","grid_id":"100000278"}],"peopleid3":"15822"},"110432":{"name":"Ormuri","rop3":"110432","locations":[{"population":"3200","lng":"68.9185","lat":"32.7748","level":"admin2","label":"Gomal, Paktika, Afghanistan","grid_id":"100000282"}],"peopleid3":"15735"},"107747":{"name":"Pahlavani","rop3":"107747","locations":[{"population":"3700","lng":"62.1988","lat":"31.3333","level":"admin2","label":"Chakhansur, Nimroz, Afghanistan","grid_id":"100000268"}],"peopleid3":"14255"},"107875":{"name":"Parachi","rop3":"107875","locations":[{"population":"8100","lng":"69.6431","lat":"35.0794","level":"admin2","label":"Nijrab, Kapisa, Afghanistan","grid_id":"100000205"}],"peopleid3":"14311"},"107901":{"name":"Parsee","rop3":"107901","locations":[{"population":"2300","lng":"61.5836","lat":"34.245","level":"admin2","label":"Ghoryan, Hirat, Afghanistan","grid_id":"100000152"},{"population":"800","lng":"90.6343","lat":"24.3443","level":"admin2","label":"Kishoreganj, Dhaka, Bangladesh","grid_id":"100018544"},{"population":"7600","lng":"-79.3595","lat":"43.74","level":"admin2","label":"Toronto, Ontario, Canada","grid_id":"100041653"},{"population":"78000","lng":"73.3243","lat":"19.5623","level":"admin2","label":"Thane, Maharashtra, India","grid_id":"100219756"},{"population":"28000","lng":"58.624","lat":"32.994","level":"admin2","label":"Sarbisheh, South Khorasan, Iran","grid_id":"100222680"},{"population":"7500","lng":"69.408","lat":"27.997","level":"admin2","label":"Sukkur, Sind, Pakistan","grid_id":"100260018"},{"population":"700","lng":"80.0209","lat":"6.86817","level":"admin2","label":"Homagama, Colombo, Sri Lanka","grid_id":"100241124"},{"population":"2600","lng":"68.7876","lat":"38.5786","level":"admin2","label":"Rudaki, Dushanbe, Tajikistan","grid_id":"100350537"},{"population":"4400","lng":"-0.158542","lat":"51.4684","level":"admin2","label":"Greater London, England, United Kingdom","grid_id":"100130518"},{"population":"19000","lng":"-73.9949","lat":"40.7227","level":"admin2","label":"New York, New York, United States","grid_id":"100366112"},{"population":"2400","lng":"69.2274","lat":"41.2906","level":"admin2","label":"Tashkent City, Tashkent City, Uzbekistan","grid_id":"100367574"}],"peopleid3":"14322"},"107906":{"name":"Parya","rop3":"107906","locations":[{"population":"400","lng":"69.8967","lat":"34.4793","level":"admin2","label":"Qarghayi, Laghman, Afghanistan","grid_id":"100000242"},{"population":"4500","lng":"68.6194","lat":"38.5009","level":"admin2","label":"Hissor, Tadzhikistan Territories, Tajikistan","grid_id":"100350584"},{"population":"1200","lng":"67.6709","lat":"38.1126","level":"admin2","label":"Oltinsoy, Surkhandarya, Uzbekistan","grid_id":"100367553"}],"peopleid3":"14324"},"113939":{"name":"Pashayi","rop3":"113939","locations":[{"population":"47000","lng":"69.4532","lat":"34.2043","level":"admin2","label":"Muhammad Agha, Logar, Afghanistan","grid_id":"100000246"},{"population":"25000","lng":"71.5611","lat":"33.9767","level":"admin2","label":"Peshawar, N.W.F.P., Pakistan","grid_id":"100260003"}],"peopleid3":"18369"},"107420":{"name":"Pashayi, Northeast","rop3":"107420","locations":[{"population":"92000","lng":"70.4317","lat":"34.66","level":"admin2","label":"Kuz Kunar, Nangarhar, Afghanistan","grid_id":"100000259"}],"peopleid3":"13996"},"107474":{"name":"Pashayi, Northwest","rop3":"107474","locations":[{"population":"96000","lng":"70.042","lat":"34.9611","level":"admin2","label":"Dawlat Shah, Laghman, Afghanistan","grid_id":"100000240"}],"peopleid3":"14042"},"109456":{"name":"Pashayi, Southeast","rop3":"109456","locations":[{"population":"547000","lng":"70.3035","lat":"34.431","level":"admin2","label":"Surkh Rod, Nangarhar, Afghanistan","grid_id":"100000267"}],"peopleid3":"15025"},"109523":{"name":"Pashayi, Southwest","rop3":"109523","locations":[{"population":"121000","lng":"69.7758","lat":"34.881","level":"admin2","label":"Alasay, Kapisa, Afghanistan","grid_id":"100000201"}],"peopleid3":"15072"},"107909":{"name":"Pashtun, Northern","rop3":"107909","locations":[{"population":"2749000","lng":"68.363","lat":"33.562","level":"admin2","label":"Jaghatu, Ghazni, Afghanistan","grid_id":"100000121"},{"population":"9000","lng":"151.112","lat":"-33.8104","level":"admin2","label":"Ryde, New South Wales, Australia","grid_id":"100003040"},{"population":"1400","lng":"-79.5909","lat":"43.6208","level":"admin2","label":"Peel, Ontario, Canada","grid_id":"100041641"},{"population":"4800","lng":"-70.6393","lat":"-33.5044","level":"admin2","label":"Cordillera, Regi\u00f3n Metropolitana de Santiago, Chile","grid_id":"100050396"},{"population":"12000","lng":"12.4552","lat":"55.6283","level":"admin2","label":"Hvidovre, Hovedstaden, Denmark","grid_id":"100072591"},{"population":"39000","lng":"2.30265","lat":"48.8669","level":"admin2","label":"Paris, \u00cele-de-France, France","grid_id":"100089652"},{"population":"39000","lng":"8.68187","lat":"50.1269","level":"admin2","label":"Frankfurt am Main, Hessen, Germany","grid_id":"100056316"},{"population":"600","lng":"73.2","lat":"41.1","level":"admin2","label":"Suzak, Jalal-Abad, Kyrgyzstan","grid_id":"100235169"},{"population":"6000","lng":"101.684","lat":"3.11994","level":"admin2","label":"Kuala Lumpur, Kuala Lumpur, Malaysia","grid_id":"100253326"},{"population":"1800","lng":"174.72","lat":"-36.74","level":"admin2","label":"Auckland, Auckland, New Zealand","grid_id":"100259842"},{"population":"30315000","lng":"71.36","lat":"33.794","level":"admin2","label":"F.A.T.A., F.A.T.A., Pakistan","grid_id":"100259994"},{"population":"5500","lng":"37.7337","lat":"55.6453","level":"admin2","label":"South-Eastern, Moscow City, Russia","grid_id":"100318922"},{"population":"4800","lng":"68.78","lat":"38.54","level":"admin2","label":"Rudaki, Tadzhikistan Territories, Tajikistan","grid_id":"100350589"},{"population":"10000","lng":"65.2045","lat":"37.83","level":"admin2","label":"Khamyab, Jawzjan, Afghanistan","grid_id":"100000168"},{"population":"395000","lng":"54.6429","lat":"24.4828","level":"admin2","label":"Abu Dhabi, Abu Dhabi, United Arab Emirates","grid_id":"100001535"},{"population":"54000","lng":"-0.279967","lat":"51.5372","level":"admin2","label":"Greater London, England, United Kingdom","grid_id":"100130518"},{"population":"51000","lng":"-73.8997","lat":"40.7477","level":"admin2","label":"Queens, New York, United States","grid_id":"100366122"},{"population":"2800","lng":"67.277","lat":"37.2303","level":"admin2","label":"Termiz, Surkhandarya, Uzbekistan","grid_id":"100367557"}],"peopleid3":"14256"},"109502":{"name":"Pashtun, Southern","rop3":"109502","locations":[{"population":"9656000","lng":"68.363","lat":"33.562","level":"admin2","label":"Jaghatu, Ghazni, Afghanistan","grid_id":"100000121"},{"population":"160000","lng":"60.4319","lat":"33.8132","level":"admin2","label":"Birjand, South Khorasan, Iran","grid_id":"100222678"},{"population":"600","lng":"71.3948","lat":"51.1776","level":"admin2","label":"Tselinogradskiy, Aqmola, Kazakhstan","grid_id":"100233203"},{"population":"7500","lng":"10.7125","lat":"59.9473","level":"admin2","label":"Oslo, Oslo, Norway","grid_id":"100255578"},{"population":"33000","lng":"69.09","lat":"37.89","level":"admin2","label":"Sarband, Khatlon, Tajikistan","grid_id":"100350562"},{"population":"1500","lng":"58.4","lat":"37.95","level":"admin2","label":"Quchan, Razavi Khorasan, Iran","grid_id":"100222661"},{"population":"900","lng":"30.4363","lat":"50.4298","level":"admin2","label":"NULL","grid_id":"100363627"},{"population":"146000","lng":"55.43","lat":"25.25","level":"admin2","label":"Sector 2, Dubai, United Arab Emirates","grid_id":"100001583"},{"population":"49000","lng":"0.199125","lat":"51.4449","level":"admin2","label":"Kent, England, United Kingdom","grid_id":"100130526"}],"peopleid3":"14327"},"107987":{"name":"Persian","rop3":"107987","locations":[{"population":"663000","lng":"62.4461","lat":"34.2582","level":"admin2","label":"Guzara, Hirat, Afghanistan","grid_id":"100000154"},{"population":"60000","lng":"151.207","lat":"-33.8672","level":"admin2","label":"Sydney, New South Wales, Australia","grid_id":"100003047"},{"population":"18000","lng":"16.3478","lat":"48.1769","level":"admin2","label":"Wien, Wien, Austria","grid_id":"100003596"},{"population":"1400","lng":"48.5299","lat":"39.3133","level":"admin2","label":"C\u0259lilabad, Lankaran, Azerbaijan","grid_id":"100005778"},{"population":"220000","lng":"50.4947","lat":"26.0808","level":"admin1","label":"Northern, Bahrain","grid_id":"100024585"},{"population":"900","lng":"90.6376","lat":"24.0013","level":"admin2","label":"Gazipur, Dhaka, Bangladesh","grid_id":"100018541"},{"population":"6000","lng":"4.35485","lat":"50.8556","level":"admin2","label":"Bruxelles, Bruxelles, Belgium","grid_id":"100017368"},{"population":"800","lng":"114.174","lat":"22.3036","level":"admin2","label":"Zhuhai, Guangdong, China","grid_id":"100050805"},{"population":"1400","lng":"33.0209","lat":"34.6845","level":"admin1","label":"Limassol, Cyprus","grid_id":"100056017"},{"population":"14000","lng":"12.5376","lat":"55.6915","level":"admin2","label":"K\u00f8benhavn, Hovedstaden, Denmark","grid_id":"100072593"},{"population":"2900","lng":"24.7974","lat":"60.2148","level":"admin2","label":"Uusimaa, Southern Finland, Finland","grid_id":"100089040"},{"population":"65000","lng":"2.30129","lat":"48.8495","level":"admin2","label":"Paris, \u00cele-de-France, France","grid_id":"100089652"},{"population":"1100","lng":"23.7163","lat":"38.014","level":"admin2","label":"Attica, Attica, Greece","grid_id":"100131876"},{"population":"7500","lng":"87.3111","lat":"24.7064","level":"admin2","label":"Godda, Jharkhand, India","grid_id":"100219611"},{"population":"37677000","lng":"51.4361","lat":"35.7033","level":"admin2","label":"Theran, Tehran, Iran","grid_id":"100222688"},{"population":"474000","lng":"46.8948","lat":"32.2245","level":"admin2","label":"Ali al Gharbi, Maysan, Iraq","grid_id":"100222814"},{"population":"7300","lng":"12.5212","lat":"41.8849","level":"admin2","label":"Roma, Lazio, Italy","grid_id":"100223034"},{"population":"50000","lng":"139.727","lat":"35.6859","level":"admin2","label":"Shinjuku, Tokyo, Japan","grid_id":"100233006"},{"population":"5000","lng":"71.4188","lat":"51.1775","level":"admin2","label":"Tselinogradskiy, Aqmola, Kazakhstan","grid_id":"100233203"},{"population":"54000","lng":"48.0106","lat":"29.2161","level":"admin2","label":"Al Faw, Al-Basrah, Iraq","grid_id":"100222747"},{"population":"42000","lng":"101.702","lat":"3.15841","level":"admin2","label":"Kuala Lumpur, Kuala Lumpur, Malaysia","grid_id":"100253326"},{"population":"4500","lng":"4.88129","lat":"52.3901","level":"admin2","label":"Amsterdam, Noord-Holland, Netherlands","grid_id":"100255045"},{"population":"3400","lng":"174.746","lat":"-36.7792","level":"admin2","label":"Auckland, Auckland, New Zealand","grid_id":"100259842"},{"population":"21000","lng":"10.6255","lat":"59.9109","level":"admin2","label":"B\u00e6rum, Akershus, Norway","grid_id":"100255294"},{"population":"70000","lng":"58.0959","lat":"23.5261","level":"admin2","label":"Nakhal, Al Batinah South, Oman","grid_id":"100259947"},{"population":"14000","lng":"71.5683","lat":"34.0154","level":"admin2","label":"Peshawar, N.W.F.P., Pakistan","grid_id":"100260003"},{"population":"279000","lng":"51.38","lat":"25.3954","level":"admin2","label":"Dalma Island, Abu Dhabi, United Arab Emirates","grid_id":"100001537"},{"population":"3800","lng":"37.7919","lat":"55.6593","level":"admin2","label":"South-Eastern, Moscow City, Russia","grid_id":"100318922"},{"population":"240000","lng":"46.6894","lat":"24.6649","level":"admin1","label":"Ar Riyad, Saudi Arabia","grid_id":"100340259"},{"population":"2700","lng":"-4.50059","lat":"36.6291","level":"admin2","label":"M\u00e1laga, Andaluc\u00eda, Spain","grid_id":"100074601"},{"population":"54000","lng":"35.9282","lat":"35.3629","level":"admin2","label":"Jableh, Lattakia, Syria","grid_id":"100343120"},{"population":"600","lng":"68.7786","lat":"37.8391","level":"admin2","label":"Bokhtar, Khatlon, Tajikistan","grid_id":"100350546"},{"population":"685000","lng":"43.3704","lat":"38.4905","level":"admin2","label":"Edremit, Van, Turkey","grid_id":"100352827"},{"population":"16000","lng":"58.2008","lat":"38.0518","level":"admin2","label":"Quchan, Razavi Khorasan, Iran","grid_id":"100222661"},{"population":"316000","lng":"55.5929","lat":"25.3747","level":"admin2","label":"Al Yasmeen, Ajman, United Arab Emirates","grid_id":"100001574"},{"population":"47000","lng":"-0.297037","lat":"51.4623","level":"admin2","label":"Greater London, England, United Kingdom","grid_id":"100130518"},{"population":"315000","lng":"-76.9586","lat":"38.9141","level":"admin2","label":"District of Columbia, District of Columbia, United States","grid_id":"100364567"},{"population":"34000","lng":"60.6366","lat":"41.5591","level":"admin2","label":"Urganch, Khorezm, Uzbekistan","grid_id":"100367499"},{"population":"22000","lng":"44.2117","lat":"15.4023","level":"admin2","label":"NULL","grid_id":"100380229"}],"peopleid3":"14371"},"108182":{"name":"Punjabi","rop3":"108182","locations":[{"population":"6000","lng":"71.0732","lat":"34.1478","level":"admin2","label":"Muhmand Dara, Nangarhar, Afghanistan","grid_id":"100000261"},{"population":"134000","lng":"151.27","lat":"-33.75","level":"admin2","label":"Warringah, New South Wales, Australia","grid_id":"100003065"},{"population":"512000","lng":"-120.38","lat":"50.6993","level":"admin2","label":"Thompson-Nicola, British Columbia, Canada","grid_id":"100041531"},{"population":"36000","lng":"51.4323","lat":"35.6856","level":"admin2","label":"Theran, Tehran, Iran","grid_id":"100222688"},{"population":"70000","lng":"139.718","lat":"35.6549","level":"admin2","label":"Shibuya, Tokyo, Japan","grid_id":"100233004"},{"population":"67000","lng":"36.8489","lat":"-1.24049","level":"admin2","label":"Roysambu, Nairobi, Kenya","grid_id":"100233598"},{"population":"68000","lng":"101.692","lat":"3.00728","level":"admin2","label":"Petaling, Selangor, Malaysia","grid_id":"100253428"},{"population":"25000","lng":"57.5073","lat":"-20.1712","level":"admin2","label":"Lau, Eastern, Fiji","grid_id":"100089579"},{"population":"11000","lng":"96.1268","lat":"16.8671","level":"admin2","label":"Yangon-W, Yangon, Myanmar","grid_id":"100248536"},{"population":"20000","lng":"174.73","lat":"-36.72","level":"admin2","label":"Auckland, Auckland, New Zealand","grid_id":"100259842"},{"population":"41000","lng":"58.4954","lat":"23.6311","level":"admin2","label":"Muttrah, Muscat, Oman","grid_id":"100259976"},{"population":"821000","lng":"46.6971","lat":"24.6363","level":"admin1","label":"Ar Riyad, Saudi Arabia","grid_id":"100340259"},{"population":"25000","lng":"103.778","lat":"1.36119","level":"admin2","label":"Johor Baharu, Johor, Malaysia","grid_id":"100253295"},{"population":"68000","lng":"39.2611","lat":"-6.77382","level":"admin2","label":"Kinondoni, Dar es Salaam, Tanzania","grid_id":"100352942"},{"population":"62000","lng":"100.559","lat":"13.7915","level":"admin2","label":"Phaya Thai, Bangkok Metropolis, Thailand","grid_id":"100343722"},{"population":"254000","lng":"-73.8855","lat":"40.7626","level":"admin2","label":"Queens, New York, United States","grid_id":"100366122"}],"peopleid3":"14483"},"110802":{"name":"Punjabi, Western","rop3":"110802","locations":[{"population":"37000","lng":"70.3012","lat":"34.7575","level":"admin2","label":"Alingar, Laghman, Afghanistan","grid_id":"100000238"},{"population":"68000","lng":"13.21","lat":"32.87","level":"admin1","label":"Tripoli, Libya","grid_id":"100241001"}],"peopleid3":"15382"},"108231":{"name":"Qizilbash","rop3":"108231","locations":[{"population":"299000","lng":"62.094","lat":"32.3648","level":"admin2","label":"Farah City, Farah, Afghanistan","grid_id":"100000094"},{"population":"5000","lng":"68.3122","lat":"30.8822","level":"admin2","label":"Zhob, Baluchistan, Pakistan","grid_id":"100259993"}],"peopleid3":"14498"},"108397":{"name":"Romani, Balkan","rop3":"108397","locations":[{"population":"17000","lng":"62.1513","lat":"34.3505","level":"admin2","label":"Hirat City, Hirat, Afghanistan","grid_id":"100000155"},{"population":"4500","lng":"3.09682","lat":"36.6211","level":"admin2","label":"Sidi Moussa, Alger, Algeria","grid_id":"100385347"},{"population":"36000","lng":"52.1979","lat":"35.0306","level":"admin2","label":"Garmsar, Semnan, Iran","grid_id":"100222668"},{"population":"73000","lng":"34.9333","lat":"39.323","level":"admin2","label":"Yenifak\u0131l\u0131, Yozgat, Turkey","grid_id":"100352853"}],"peopleid3":"14570"},"102682":{"name":"Romani, Domari","rop3":"102682","locations":[{"population":"11000","lng":"69.1296","lat":"34.4746","level":"admin2","label":"Kabul City, Kabul, Afghanistan","grid_id":"100000179"},{"population":"1798000","lng":"29.9624","lat":"31.2099","level":"admin2","label":"Sidi Jabir, Al Iskandariyah, Egypt","grid_id":"100074251"},{"population":"1409000","lng":"50.0054","lat":"31.852","level":"admin2","label":"Izeh County, Khuzestan, Iran","grid_id":"100222596"},{"population":"38000","lng":"46.7994","lat":"31.3769","level":"admin2","label":"Al Miamona, Maysan, Iraq","grid_id":"100222812"},{"population":"8700","lng":"35.2207","lat":"31.7732","level":"admin2","label":"Jerusalem, West Bank, Palestina","grid_id":"100314687"},{"population":"45000","lng":"37.102","lat":"31.065","level":"admin2","label":"Jizeh, Amman, Jordan","grid_id":"100231283"},{"population":"6300","lng":"74.1","lat":"47.2","level":"admin2","label":"Shetskiy, Qaraghandy, Kazakhstan","grid_id":"100233281"},{"population":"500","lng":"74.5801","lat":"42.8734","level":"admin2","label":"Bi\u0161kek, Bi\u0161kek, Kyrgyzstan","grid_id":"100235155"},{"population":"5500","lng":"35.5599","lat":"33.838","level":"admin2","label":"Baabda, Mount Lebanon, Lebanon","grid_id":"100239005"},{"population":"36000","lng":"13.014","lat":"31.9281","level":"admin1","label":"Al Jabal al Gharbi, Libya","grid_id":"100240984"},{"population":"30000","lng":"36.6288","lat":"33.7644","level":"admin2","label":"Al-Qutayfah, Rif Dimashq, Syria","grid_id":"100343124"},{"population":"3100","lng":"69.8195","lat":"38.5675","level":"admin2","label":"Baljuvon, Khatlon, Tajikistan","grid_id":"100350545"},{"population":"35000","lng":"29.6863","lat":"38.6181","level":"admin2","label":"Banaz, Usak, Turkey","grid_id":"100352817"},{"population":"69000","lng":"55.0026","lat":"24.8527","level":"admin2","label":"Abu Dhabi, Abu Dhabi, United Arab Emirates","grid_id":"100001535"},{"population":"3600","lng":"34.482","lat":"31.55","level":"admin2","label":"Gaza ash Shamaliyah, Gaza, Palestina","grid_id":"100314680"}],"peopleid3":"11597"},"108647":{"name":"Sanglechi","rop3":"108647","locations":[{"population":"2800","lng":"71.5737","lat":"36.6741","level":"admin2","label":"Ishkashim, Badakhshan, Afghanistan","grid_id":"100000039"},{"population":"1900","lng":"71.8306","lat":"36.7699","level":"admin2","label":"Ishkoshim, Gorno-Badakhshan, Tajikistan","grid_id":"100350539"}],"peopleid3":"14727"},"108746":{"name":"Sau","rop3":"108746","locations":[{"population":"4800","lng":"71.4591","lat":"35.1696","level":"admin2","label":"Nali, Kunar, Afghanistan","grid_id":"100000227"}],"peopleid3":"14782"},"108967":{"name":"Shughni","rop3":"108967","locations":[{"population":"45000","lng":"71.3738","lat":"37.5916","level":"admin2","label":"Shighnan, Badakhshan, Afghanistan","grid_id":"100000046"},{"population":"39000","lng":"72.0417","lat":"37.9942","level":"admin2","label":"Rushon, Gorno-Badakhshan, Tajikistan","grid_id":"100350542"}],"peopleid3":"14921"},"108970":{"name":"Shumashti","rop3":"108970","locations":[{"population":"1600","lng":"70.7508","lat":"34.749","level":"admin2","label":"Nurgal, Kunar, Afghanistan","grid_id":"100000229"}],"peopleid3":"14924"},"109027":{"name":"Sindhi","rop3":"109027","locations":[{"population":"24000","lng":"69.1089","lat":"34.5174","level":"admin2","label":"Kabul City, Kabul, Afghanistan","grid_id":"100000179"},{"population":"1200","lng":"-88.77","lat":"17.25","level":"admin2","label":"Melchor de Mencos, Pet\u00e9n, Guatemala","grid_id":"100132424"},{"population":"3300","lng":"36.8442","lat":"-1.2975","level":"admin2","label":"Makadara, Nairobi, Kenya","grid_id":"100233596"},{"population":"30000","lng":"101.712","lat":"3.06205","level":"admin2","label":"Kuala Lumpur, Kuala Lumpur, Malaysia","grid_id":"100253326"},{"population":"28000","lng":"58.54","lat":"23.6","level":"admin2","label":"Muttrah, Muscat, Oman","grid_id":"100259976"},{"population":"31000","lng":"121.102","lat":"14.6042","level":"admin2","label":"Pasig City, Metropolitan Manila, Philippines","grid_id":"100263942"},{"population":"4300","lng":"103.878","lat":"1.3819","level":"admin2","label":"Johor Baharu, Johor, Malaysia","grid_id":"100253295"},{"population":"6000","lng":"-73.8787","lat":"40.7491","level":"admin2","label":"Queens, New York, United States","grid_id":"100366122"}],"peopleid3":"14192"},"109822":{"name":"Tangshuri","rop3":"109822","locations":[{"population":"16000","lng":"71.2123","lat":"38.1116","level":"admin2","label":"Darwaz, Badakhshan, Afghanistan","grid_id":"100000037"}],"peopleid3":"15253"},"110076":{"name":"Tirahi","rop3":"110076","locations":[{"population":"5700","lng":"66.4697","lat":"31.8173","level":"admin2","label":"Tarnak Wa Jaldak, Zabul, Afghanistan","grid_id":"100000363"}],"peopleid3":"15500"},"113818":{"name":"Turk","rop3":"113818","locations":[{"population":"11000","lng":"68.8877","lat":"34.5587","level":"admin2","label":"Paghman, Kabul, Afghanistan","grid_id":"100000184"},{"population":"1700","lng":"19.7965","lat":"41.3386","level":"admin2","label":"Tiran\u00ebs, Tiran\u00eb, Albania","grid_id":"100001137"},{"population":"3500","lng":"2.96291","lat":"36.6998","level":"admin2","label":"Douera, Alger, Algeria","grid_id":"100385334"},{"population":"800","lng":"-58.687","lat":"-34.7471","level":"admin2","label":"Merlo, Buenos Aires, Argentina","grid_id":"100002362"},{"population":"47000","lng":"144.921","lat":"-37.6808","level":"admin2","label":"Hume, Victoria, Australia","grid_id":"100003303"},{"population":"121000","lng":"16.3277","lat":"48.1678","level":"admin2","label":"Wien, Wien, Austria","grid_id":"100003596"},{"population":"19000","lng":"49.8932","lat":"40.3834","level":"admin2","label":"Bak\u0131, Absheron, Azerbaijan","grid_id":"100005735"},{"population":"1700","lng":"50.484","lat":"26.1968","level":"admin1","label":"Northern, Bahrain","grid_id":"100024585"},{"population":"232000","lng":"4.4005","lat":"50.8737","level":"admin2","label":"Bruxelles, Bruxelles, Belgium","grid_id":"100017368"},{"population":"2500","lng":"18.3766","lat":"43.8501","level":"admin2","label":"Sarajevo, Federacija Bosna i Hercegovina, Bosnia and Herzegovina","grid_id":"100024630"},{"population":"6200","lng":"-46.652","lat":"-23.5843","level":"admin2","label":"S\u00e3o Paulo, S\u00e3o Paulo, Brazil","grid_id":"100030591"},{"population":"550000","lng":"25.7422","lat":"41.7295","level":"admin2","label":"Stambolovo, Haskovo, Bulgaria","grid_id":"100024366"},{"population":"37000","lng":"-123.119","lat":"49.2441","level":"admin2","label":"Greater Vancouver, British Columbia, Canada","grid_id":"100041517"},{"population":"900","lng":"-70.6449","lat":"-33.4588","level":"admin2","label":"Cordillera, Regi\u00f3n Metropolitana de Santiago, Chile","grid_id":"100050396"},{"population":"2000","lng":"14.6165","lat":"49.9806","level":"admin2","label":"Praha - v\u00fdchod, St\u0159edo\u010desk\u00fd, Czech Republic","grid_id":"100056118"},{"population":"32000","lng":"12.5369","lat":"55.6714","level":"admin2","label":"Frederiksberg, Hovedstaden, Denmark","grid_id":"100072578"},{"population":"45000","lng":"31.2859","lat":"30.1274","level":"admin2","label":"Shubra al-Khaymah 2, Al Qalyubiyah, Egypt","grid_id":"100074356"},{"population":"600","lng":"-89.1989","lat":"13.7006","level":"admin2","label":"San Salvador, San Salvador, El Salvador","grid_id":"100341817"},{"population":"4600","lng":"24.9135","lat":"60.1864","level":"admin2","label":"Uusimaa, Southern Finland, Finland","grid_id":"100089040"},{"population":"221000","lng":"2.78511","lat":"48.8596","level":"admin2","label":"Seine-et-Marne, \u00cele-de-France, France","grid_id":"100089653"},{"population":"2700","lng":"44.8312","lat":"41.6765","level":"admin2","label":"Tbilisi, Tbilisi, Georgia","grid_id":"100131153"},{"population":"1566000","lng":"7.04352","lat":"51.488","level":"admin2","label":"Essen, Nordrhein-Westfalen, Germany","grid_id":"100056404"},{"population":"40000","lng":"25.3548","lat":"41.1656","level":"admin2","label":"East Macedonia and Thrace, Macedonia and Thrace, Greece","grid_id":"100131881"},{"population":"1900","lng":"-87.22","lat":"14.1058","level":"admin2","label":"Distrito Central, Francisco Moraz\u00e1n, Honduras","grid_id":"100132926"},{"population":"2500","lng":"19.0399","lat":"47.4901","level":"admin2","label":"Budapesti, Budapest, Hungary","grid_id":"100134485"},{"population":"11000","lng":"51.3803","lat":"35.6831","level":"admin2","label":"Theran, Tehran, Iran","grid_id":"100222688"},{"population":"3100","lng":"42.462","lat":"36.3847","level":"admin2","label":"Talafar, Ninawa, Iraq","grid_id":"100222824"},{"population":"1500","lng":"-6.2521","lat":"53.3413","level":"admin2","label":"Aleutians West, Alaska, United States","grid_id":"100364319"},{"population":"18000","lng":"12.4662","lat":"41.9094","level":"admin2","label":"Roma, Lazio, Italy","grid_id":"100223034"},{"population":"4900","lng":"139.643","lat":"35.6635","level":"admin2","label":"Setagaya, Tokyo, Japan","grid_id":"100233003"},{"population":"56000","lng":"76.8962","lat":"43.2872","level":"admin2","label":"Almaty (Alma-Ata), Almaty, Kazakhstan","grid_id":"100233175"},{"population":"1700","lng":"126.923","lat":"37.5574","level":"admin2","label":"Seodaemun, Seoul, South Korea","grid_id":"100238807"},{"population":"19000","lng":"20.6699","lat":"42.2964","level":"admin2","label":"Prizren, Prizren, Kosovo","grid_id":"100380085"},{"population":"9900","lng":"47.9805","lat":"29.3166","level":"admin2","label":"Al Faw, Al-Basrah, Iraq","grid_id":"100222747"},{"population":"47000","lng":"74.5859","lat":"42.8867","level":"admin2","label":"Bi\u0161kek, Bi\u0161kek, Kyrgyzstan","grid_id":"100235155"},{"population":"30000","lng":"13.0999","lat":"32.8585","level":"admin1","label":"Tripoli, Libya","grid_id":"100241001"},{"population":"1000","lng":"9.52135","lat":"47.1394","level":"admin2","label":"Werdenberg, Sankt Gallen, Switzerland","grid_id":"100047477"},{"population":"900","lng":"6.12453","lat":"49.5986","level":"admin2","label":"Luxembourg, Luxembourg, Luxembourg","grid_id":"100241460"},{"population":"800","lng":"14.5172","lat":"35.899","level":"admin2","label":"Valletta, Xlokk, Malta","grid_id":"100248455"},{"population":"1900","lng":"28.8226","lat":"47.0193","level":"admin2","label":"Gorban, Ia\u0219i, Romania","grid_id":"100316341"},{"population":"600","lng":"19.2313","lat":"42.4525","level":"admin2","label":"Kastrat, Shkod\u00ebr, Albania","grid_id":"100001133"},{"population":"4100","lng":"-7.62691","lat":"33.5913","level":"admin2","label":"Casablanca, Grand Casablanca, Morocco","grid_id":"100241788"},{"population":"79000","lng":"4.48903","lat":"51.9301","level":"admin2","label":"Rotterdam, Zuid-Holland, Netherlands","grid_id":"100255246"},{"population":"1700","lng":"174.776","lat":"-41.2794","level":"admin2","label":"Wellington, Wellington, New Zealand","grid_id":"100259913"},{"population":"80000","lng":"22.5996","lat":"41.5373","level":"admin2","label":"Strumyani, Blagoevgrad, Bulgaria","grid_id":"100024330"},{"population":"20000","lng":"10.7701","lat":"59.9132","level":"admin2","label":"Oslo, Oslo, Norway","grid_id":"100255578"},{"population":"1400","lng":"58.5394","lat":"23.6159","level":"admin2","label":"Muttrah, Muscat, Oman","grid_id":"100259976"},{"population":"4800","lng":"21.0213","lat":"52.2316","level":"admin2","label":"Warszawa, Mazowieckie, Poland","grid_id":"100306881"},{"population":"700","lng":"-9.11225","lat":"38.7442","level":"admin2","label":"Lisboa, Lisboa, Portugal","grid_id":"100310042"},{"population":"5100","lng":"51.5246","lat":"25.2736","level":"admin2","label":"Dalma Island, Abu Dhabi, United Arab Emirates","grid_id":"100001537"},{"population":"25000","lng":"28.2049","lat":"44.6972","level":"admin2","label":"Saraiu, Constan\u021ba, Romania","grid_id":"100315781"},{"population":"55000","lng":"39.0224","lat":"45.038","level":"admin2","label":"Krasnodar gorsovet, Krasnodar, Russia","grid_id":"100318661"},{"population":"34000","lng":"46.8283","lat":"24.7271","level":"admin1","label":"Ar Riyad, Saudi Arabia","grid_id":"100340259"},{"population":"2500","lng":"21.7274","lat":"42.3158","level":"admin2","label":"Pre\u0161evo, P\u010dinjski, Serbia","grid_id":"100342103"},{"population":"1000","lng":"103.8","lat":"1.31233","level":"admin2","label":"Tanjung Sari, Kepulauan Riau, Indonesia","grid_id":"100134881"},{"population":"2900","lng":"-3.68209","lat":"40.4172","level":"admin2","label":"Madrid, Comunidad de Madrid, Spain","grid_id":"100074627"},{"population":"3500","lng":"32.5294","lat":"15.5987","level":"admin2","label":"Khartoum, Khartoum, Sudan","grid_id":"100340312"},{"population":"33000","lng":"18.0785","lat":"59.3103","level":"admin2","label":"Stockholm, Stockholm, Sweden","grid_id":"100342859"},{"population":"73000","lng":"8.59822","lat":"47.4129","level":"admin2","label":"B\u00fclach, Z\u00fcrich, Switzerland","grid_id":"100047546"},{"population":"1700","lng":"68.688","lat":"38.5197","level":"admin2","label":"Rudaki, Dushanbe, Tajikistan","grid_id":"100350537"},{"population":"59258000","lng":"32.8308","lat":"39.9676","level":"admin2","label":"Yenimahalle, Ankara, Turkey","grid_id":"100352018"},{"population":"53000","lng":"58.3981","lat":"37.9194","level":"admin2","label":"Quchan, Razavi Khorasan, Iran","grid_id":"100222661"},{"population":"3500","lng":"30.4935","lat":"50.5147","level":"admin2","label":"NULL","grid_id":"100363623"},{"population":"10000","lng":"55.3371","lat":"25.2531","level":"admin2","label":"Sector 1, Dubai, United Arab Emirates","grid_id":"100001582"},{"population":"51000","lng":"-0.134341","lat":"51.6212","level":"admin2","label":"Greater London, England, United Kingdom","grid_id":"100130518"},{"population":"197000","lng":"-73.9569","lat":"40.6542","level":"admin2","label":"Kings, New York, United States","grid_id":"100366104"},{"population":"144000","lng":"69.3265","lat":"41.3306","level":"admin2","label":"Qibray, Tashkent, Uzbekistan","grid_id":"100367568"},{"population":"27000","lng":"-66.8884","lat":"10.4845","level":"admin2","label":"Libertador, Distrito Capital, Venezuela","grid_id":"100367715"}],"peopleid3":"18274"},"110306":{"name":"Turkmen","rop3":"110306","locations":[{"population":"2171000","lng":"64.7567","lat":"36.5949","level":"admin2","label":"Dawlat abad, Faryab, Afghanistan","grid_id":"100000105"},{"population":"500","lng":"71.1035","lat":"21.7212","level":"admin2","label":"Amreli, Gujarat, India","grid_id":"100219517"},{"population":"759000","lng":"55.4626","lat":"37.7151","level":"admin2","label":"Gonbad-e-Kavus, Golestan, Iran","grid_id":"100222530"},{"population":"2900","lng":"69.5941","lat":"42.3148","level":"admin2","label":"Shymkent, South Kazakhstan, Kazakhstan","grid_id":"100233318"},{"population":"5000","lng":"72.9788","lat":"40.9371","level":"admin2","label":"Suzak, Jalal-Abad, Kyrgyzstan","grid_id":"100235169"},{"population":"161000","lng":"71.5611","lat":"33.9767","level":"admin2","label":"Peshawar, N.W.F.P., Pakistan","grid_id":"100260003"},{"population":"38000","lng":"46.5279","lat":"44.3272","level":"admin2","label":"Tarumovskiy rayon, Dagestan, Russia","grid_id":"100318239"},{"population":"18000","lng":"67.9833","lat":"37.2337","level":"admin2","label":"Nosir Khusrav, Khatlon, Tajikistan","grid_id":"100350558"},{"population":"1600","lng":"36.5912","lat":"40.3033","level":"admin2","label":"Merkez, Tokat, Turkey","grid_id":"100352783"},{"population":"4577000","lng":"57.975","lat":"38.1753","level":"admin2","label":"Bojnurd, North Khorasan, Iran","grid_id":"100222643"},{"population":"3300","lng":"30.4764","lat":"50.4825","level":"admin2","label":"NULL","grid_id":"100363625"},{"population":"149000","lng":"59.6028","lat":"42.4616","level":"admin2","label":"Nukus, Karakalpakstan, Uzbekistan","grid_id":"100367473"}],"peopleid3":"15654"},"110469":{"name":"Uyghur","rop3":"110469","locations":[{"population":"4800","lng":"62.7225","lat":"34.8938","level":"admin2","label":"Ab Kamari, Badghis, Afghanistan","grid_id":"100000049"},{"population":"800","lng":"-79.6738","lat":"43.6911","level":"admin2","label":"Peel, Ontario, Canada","grid_id":"100041641"},{"population":"11881000","lng":"75.9908","lat":"39.4634","level":"admin2","label":"Kashgar, Xinjiang Uygur, China","grid_id":"100051046"},{"population":"6300","lng":"51.4107","lat":"35.6885","level":"admin2","label":"Theran, Tehran, Iran","grid_id":"100222688"},{"population":"337000","lng":"79.5326","lat":"43.3651","level":"admin2","label":"Uygurskiy, Almaty, Kazakhstan","grid_id":"100233188"},{"population":"55000","lng":"74.6273","lat":"42.8761","level":"admin2","label":"Bi\u0161kek, Bi\u0161kek, Kyrgyzstan","grid_id":"100235155"},{"population":"500","lng":"95.7309","lat":"43.7621","level":"admin2","label":"Altai, Govi-Altay, Mongolia","grid_id":"100249006"},{"population":"3800","lng":"81.2006","lat":"51.5369","level":"admin2","label":"Rubtsovskiy rayon, Altay, Russia","grid_id":"100317851"},{"population":"9000","lng":"46.6921","lat":"24.7185","level":"admin1","label":"Ar Riyad, Saudi Arabia","grid_id":"100340259"},{"population":"900","lng":"41.5726","lat":"41.0164","level":"admin2","label":"Yusufeli, Artvin, Turkey","grid_id":"100352047"},{"population":"2300","lng":"63.5951","lat":"39.0336","level":"admin2","label":"Olot, Bukhoro, Uzbekistan","grid_id":"100367432"},{"population":"1000","lng":"-74.4786","lat":"40.804","level":"admin2","label":"Morris, New Jersey, United States","grid_id":"100366040"},{"population":"48000","lng":"71.7293","lat":"40.4621","level":"admin2","label":"Oxunboboev, Ferghana, Uzbekistan","grid_id":"100367447"}],"peopleid3":"15755"},"110472":{"name":"Uzbek, Southern","rop3":"110472","locations":[{"population":"4358000","lng":"66.7094","lat":"36.3316","level":"admin2","label":"Sholgara, Balkh, Afghanistan","grid_id":"100000080"},{"population":"2000","lng":"49.8613","lat":"40.4041","level":"admin2","label":"Bak\u0131, Absheron, Azerbaijan","grid_id":"100005735"},{"population":"3500","lng":"30.3428","lat":"51.9221","level":"admin2","label":"NULL","grid_id":"100024808"},{"population":"4200","lng":"43.97","lat":"39.5551","level":"admin2","label":"Do\u011fubeyaz\u0131t, Agri, Turkey","grid_id":"100351974"},{"population":"29000","lng":"-73.9047","lat":"40.7479","level":"admin2","label":"Queens, New York, United States","grid_id":"100366122"}],"peopleid3":"15756"},"110689":{"name":"Warduji","rop3":"110689","locations":[{"population":"8100","lng":"70.8626","lat":"36.9877","level":"admin2","label":"Baharak, Badakhshan, Afghanistan","grid_id":"100000036"}],"peopleid3":"15866"},"110865":{"name":"Wotapuri-Katarqalai","rop3":"110865","locations":[{"population":"3500","lng":"70.9812","lat":"35.1214","level":"admin2","label":"Waygal, Nuristan, Afghanistan","grid_id":"100000278"}],"peopleid3":"15418"},"117066":{"name":"Egyptian, Balkan","rop3":"117066","locations":[{"population":"2900","lng":"19.8187","lat":"41.3456","level":"admin2","label":"Tiran\u00ebs, Tiran\u00eb, Albania","grid_id":"100001137"},{"population":"12000","lng":"21.1647","lat":"42.6532","level":"admin2","label":"Pri\u0161tina, Pristina, Kosovo","grid_id":"100380082"},{"population":"2000","lng":"19.2732","lat":"42.4563","level":"admin2","label":"Kastrat, Shkod\u00ebr, Albania","grid_id":"100001133"},{"population":"3700","lng":"21.4282","lat":"41.9845","level":"admin2","label":"Ka\u010danik, Uro\u0161evac, Kosovo","grid_id":"100380087"},{"population":"1700","lng":"20.3782","lat":"44.8071","level":"admin2","label":"Novi Beograd, Grad Beograd, Serbia","grid_id":"100342038"}],"peopleid3":"20676"},"114431":{"name":"Gorani","rop3":"114431","locations":[{"population":"35000","lng":"19.6982","lat":"40.6609","level":"admin2","label":"Fierit, Fier, Albania","grid_id":"100001116"},{"population":"11000","lng":"20.7334","lat":"42.2147","level":"admin2","label":"Prizren, Prizren, Kosovo","grid_id":"100380085"},{"population":"5900","lng":"20.609","lat":"41.8082","level":"admin2","label":"Draga\u0161, Prizren, Kosovo","grid_id":"100380083"},{"population":"6100","lng":"20.4569","lat":"44.7968","level":"admin2","label":"Stari Grad, Grad Beograd, Serbia","grid_id":"100342044"}],"peopleid3":"18765"},"100226":{"name":"Algerian, Arabic-speaking","rop3":"100226","locations":[{"population":"29618000","lng":"5.38944","lat":"35.9974","level":"admin2","label":"Bir Haddada, S\u00e9tif, Algeria","grid_id":"100386335"},{"population":"11000","lng":"4.41372","lat":"51.2194","level":"admin2","label":"Antwerpen, Vlaanderen, Belgium","grid_id":"100017369"},{"population":"21000","lng":"-1.26669","lat":"14.0096","level":"admin2","label":"Soum, Sahel, Burkina Faso","grid_id":"100018157"},{"population":"55000","lng":"-75.698","lat":"45.4235","level":"admin2","label":"Ottawa, Ontario, Canada","grid_id":"100041638"},{"population":"500","lng":"14.6062","lat":"50.0868","level":"admin2","label":"Praha 14, Prague, Czech Republic","grid_id":"100056093"},{"population":"900","lng":"12.5842","lat":"55.7589","level":"admin2","label":"Gentofte, Hovedstaden, Denmark","grid_id":"100072581"},{"population":"1840000","lng":"31.1259","lat":"30.4448","level":"admin2","label":"Al-Bajur, Al Minufiyah, Egypt","grid_id":"100074280"},{"population":"477000","lng":"2.19191","lat":"48.8757","level":"admin2","label":"Hauts-de-Seine, \u00cele-de-France, France","grid_id":"100089651"},{"population":"232000","lng":"8.66279","lat":"50.1177","level":"admin2","label":"Frankfurt am Main, Hessen, Germany","grid_id":"100056316"},{"population":"22000","lng":"13.3478","lat":"38.1142","level":"admin2","label":"Palermo, Sicily, Italy","grid_id":"100223080"},{"population":"295000","lng":"13.2045","lat":"32.857","level":"admin1","label":"Tripoli, Libya","grid_id":"100241001"},{"population":"51000","lng":"-6.94188","lat":"33.2189","level":"admin2","label":"Settat, Chaouia - Ouardigha, Morocco","grid_id":"100241779"},{"population":"92000","lng":"4.75637","lat":"52.3453","level":"admin2","label":"Haarlemmermeer, Noord-Holland, Netherlands","grid_id":"100255064"},{"population":"312000","lng":"2.12442","lat":"13.5082","level":"admin2","label":"Niamey, Niamey, Niger","grid_id":"100253642"},{"population":"60000","lng":"-3.65884","lat":"40.4517","level":"admin2","label":"Madrid, Comunidad de Madrid, Spain","grid_id":"100074627"},{"population":"2400","lng":"17.9694","lat":"59.3588","level":"admin2","label":"Sundbyberg, Stockholm, Sweden","grid_id":"100342860"},{"population":"280000","lng":"8.68401","lat":"36.6651","level":"admin2","label":"Fernana, Jendouba, Tunisia","grid_id":"100351650"},{"population":"25000","lng":"-77.2019","lat":"39.0355","level":"admin2","label":"Montgomery, Maryland, United States","grid_id":"100365457"}],"peopleid3":"10379"},"104056":{"name":"Arab, Iraqi","rop3":"104056","locations":[{"population":"4700","lng":"1.28377","lat":"28.4895","level":"admin2","label":"Aougrout, Adrar, Algeria","grid_id":"100385236"},{"population":"70000","lng":"144.887","lat":"-37.813","level":"admin2","label":"Maribyrnong, Victoria, Australia","grid_id":"100003312"},{"population":"6700","lng":"4.35394","lat":"50.8534","level":"admin2","label":"Bruxelles, Bruxelles, Belgium","grid_id":"100017368"},{"population":"29000","lng":"-79.8885","lat":"43.2609","level":"admin2","label":"Hamilton, Ontario, Canada","grid_id":"100041619"},{"population":"2000","lng":"33.0301","lat":"34.6983","level":"admin1","label":"Limassol, Cyprus","grid_id":"100056017"},{"population":"21000","lng":"12.4839","lat":"55.6243","level":"admin2","label":"Hvidovre, Hovedstaden, Denmark","grid_id":"100072591"},{"population":"7000","lng":"25.0276","lat":"60.291","level":"admin2","label":"Uusimaa, Southern Finland, Finland","grid_id":"100089040"},{"population":"33000","lng":"1.85759","lat":"50.9496","level":"admin2","label":"Pas-de-Calais, Hauts-de-France, France","grid_id":"100089648"},{"population":"5100","lng":"13.3689","lat":"52.5396","level":"admin2","label":"Berlin, Berlin, Germany","grid_id":"100056291"},{"population":"16045000","lng":"44.3579","lat":"33.2966","level":"admin2","label":"Adhamiya, Baghdad, Iraq","grid_id":"100222791"},{"population":"2200","lng":"12.4408","lat":"41.8954","level":"admin2","label":"Roma, Lazio, Italy","grid_id":"100223034"},{"population":"19000","lng":"47.8019","lat":"29.2964","level":"admin2","label":"Al Zubair, Al-Basrah, Iraq","grid_id":"100222750"},{"population":"27000","lng":"35.5093","lat":"33.8537","level":"admin2","label":"Baabda, Mount Lebanon, Lebanon","grid_id":"100239005"},{"population":"6000","lng":"4.88173","lat":"52.3599","level":"admin2","label":"Amsterdam, Noord-Holland, Netherlands","grid_id":"100255045"},{"population":"2700","lng":"174.744","lat":"-36.8797","level":"admin2","label":"Auckland, Auckland, New Zealand","grid_id":"100259842"},{"population":"900","lng":"-3.74797","lat":"40.3621","level":"admin2","label":"Madrid, Comunidad de Madrid, Spain","grid_id":"100074627"},{"population":"93000","lng":"18.0391","lat":"59.3322","level":"admin2","label":"Stockholm, Stockholm, Sweden","grid_id":"100342859"},{"population":"55000","lng":"37.99","lat":"35.97","level":"admin2","label":"Manbij, Aleppo, Syria","grid_id":"100343089"},{"population":"112000","lng":"28.8912","lat":"41.0313","level":"admin2","label":"Esenler, Istanbul, Turkey","grid_id":"100352377"},{"population":"51000","lng":"55.2873","lat":"25.2559","level":"admin2","label":"Sector 3, Dubai, United Arab Emirates","grid_id":"100001584"},{"population":"43000","lng":"-0.154541","lat":"51.4442","level":"admin2","label":"Greater London, England, United Kingdom","grid_id":"100130518"},{"population":"126000","lng":"-83.1872","lat":"42.5134","level":"admin2","label":"Oakland, Michigan, United States","grid_id":"100365546"},{"population":"39000","lng":"44.0275","lat":"13.5799","level":"admin2","label":"Salh, Ta`izz, Yemen","grid_id":"100380450"}],"peopleid3":"12247"},"101950":{"name":"Bedouin, Chaamba","rop3":"101950","locations":[{"population":"137000","lng":"4.37933","lat":"33.0877","level":"admin2","label":"Guettara, Djelfa, Algeria","grid_id":"100385730"}],"peopleid3":"11284"},"102751":{"name":"Bedouin, Dui-Menia","rop3":"102751","locations":[{"population":"82000","lng":"-2.45841","lat":"30.8656","level":"admin2","label":"Abadla, B\u00e9char, Algeria","grid_id":"100385425"}],"peopleid3":"11633"},"105567":{"name":"Bedouin, Laguat","rop3":"105567","locations":[{"population":"82000","lng":"3.10384","lat":"33.9574","level":"admin2","label":"El Assafia, Laghouat, Algeria","grid_id":"100385928"}],"peopleid3":"12944"},"107028":{"name":"Bedouin, Nail","rop3":"107028","locations":[{"population":"38000","lng":"4.58885","lat":"34.145","level":"admin2","label":"Ras Miaad|Ouled Sassi, Biskra, Algeria","grid_id":"100385522"}],"peopleid3":"13922"},"108427":{"name":"Bedouin, Ruarha","rop3":"108427","locations":[{"population":"82000","lng":"6.01443","lat":"33.5255","level":"admin2","label":"Sidi Amrane, El Oued, Algeria","grid_id":"100385790"}],"peopleid3":"14584"},"108988":{"name":"Bedouin, Sidi","rop3":"108988","locations":[{"population":"137000","lng":"-3.431","lat":"27.6115","level":"admin0","label":"Algeria","grid_id":"100385185"}],"peopleid3":"14938"},"109560":{"name":"Bedouin, Suafa","rop3":"109560","locations":[{"population":"130000","lng":"6.84987","lat":"33.9574","level":"admin2","label":"Magrane, El Oued, Algeria","grid_id":"100385782"}],"peopleid3":"15095"},"109730":{"name":"Bedouin, Tajakant","rop3":"109730","locations":[{"population":"1770000","lng":"3.23033","lat":"35.4208","level":"admin2","label":"Had Sahary, Djelfa, Algeria","grid_id":"100385731"},{"population":"5900","lng":"-13.2092","lat":"27.1626","level":"admin2","label":"Tah, La\u00e2youne - Boujdour - Sakia El Hamra, Morocco","grid_id":"100241794"}],"peopleid3":"15199"},"111176":{"name":"Bedouin, Ziban","rop3":"111176","locations":[{"population":"274000","lng":"-5.94467","lat":"28.4195","level":"admin2","label":"Oum El Assel, Tindouf, Algeria","grid_id":"100386568"}],"peopleid3":"16103"},"101223":{"name":"Belbali","rop3":"101223","locations":[{"population":"3900","lng":"-2.56296","lat":"29.5137","level":"admin2","label":"Beni Abbes, B\u00e9char, Algeria","grid_id":"100385427"}],"peopleid3":"10774"},"103014":{"name":"Berber, Figig","rop3":"103014","locations":[{"population":"82000","lng":"-0.961099","lat":"31.9632","level":"admin2","label":"Beni Ounif, B\u00e9char, Algeria","grid_id":"100385429"}],"peopleid3":"11199"},"104002":{"name":"Berber, Imazighen","rop3":"104002","locations":[{"population":"1646000","lng":"-0.28593","lat":"33.5637","level":"admin2","label":"Mecheria, Na\u00e2ma, Algeria","grid_id":"100386177"},{"population":"162000","lng":"2.21363","lat":"49.0054","level":"admin2","label":"Le Plessis-Bouchard, \u00cele-de-France, France","grid_id":"100089655"},{"population":"2797000","lng":"-4.0699","lat":"32.6087","level":"admin2","label":"Errachidia, Mekn\u00e8s - Tafilalet, Morocco","grid_id":"100241801"},{"population":"3200","lng":"-0.0536622","lat":"51.5373","level":"admin2","label":"Greater London, England, United Kingdom","grid_id":"100130518"}],"peopleid3":"12217"},"104365":{"name":"Berber, Kabyle","rop3":"104365","locations":[{"population":"6029000","lng":"4.55784","lat":"36.39","level":"admin2","label":"NULL","grid_id":"100385448"},{"population":"55000","lng":"4.41622","lat":"50.8594","level":"admin2","label":"Bruxelles, Bruxelles, Belgium","grid_id":"100017368"},{"population":"17000","lng":"-73.5687","lat":"45.5254","level":"admin2","label":"Communaut\u00e9-Urbaine-de-Montr\u00e9al, Qu\u00e9bec, Canada","grid_id":"100041679"},{"population":"714000","lng":"5.44274","lat":"43.342","level":"admin2","label":"NULL","grid_id":"100089695"},{"population":"3400","lng":"-0.110838","lat":"51.4958","level":"admin2","label":"Greater London, England, United Kingdom","grid_id":"100130518"}],"peopleid3":"12399"},"106536":{"name":"Berber, Menasser","rop3":"106536","locations":[{"population":"82000","lng":"-0.590039","lat":"32.948","level":"admin2","label":"Ain Safra, Na\u00e2ma, Algeria","grid_id":"100386171"}],"peopleid3":"13669"},"106837":{"name":"Berber, Mozabite","rop3":"106837","locations":[{"population":"188000","lng":"3.84135","lat":"32.4727","level":"admin2","label":"El Atteuf, Gharda\u00efa, Algeria","grid_id":"100385825"},{"population":"5100","lng":"5.39639","lat":"43.3008","level":"admin2","label":"NULL","grid_id":"100089695"}],"peopleid3":"13842"},"101275":{"name":"Berber, Rif","rop3":"101275","locations":[{"population":"3200","lng":"-0.34831","lat":"35.8391","level":"admin2","label":"Arzew, Oran, Algeria","grid_id":"100386185"},{"population":"130000","lng":"2.59378","lat":"48.7293","level":"admin2","label":"Seine-et-Marne, \u00cele-de-France, France","grid_id":"100089653"},{"population":"1571000","lng":"-3.60767","lat":"34.743","level":"admin2","label":"Taza, Taza - Al Hoceima - Taounate, Morocco","grid_id":"100241830"},{"population":"161000","lng":"4.88928","lat":"52.3687","level":"admin2","label":"Amsterdam, Noord-Holland, Netherlands","grid_id":"100255045"}],"peopleid3":"10803"},"108925":{"name":"Berber, Shawiya","rop3":"108925","locations":[{"population":"2339000","lng":"6.93694","lat":"35.276","level":"admin2","label":"Tamza, Khenchela, Algeria","grid_id":"100385921"},{"population":"41000","lng":"4.33755","lat":"50.8471","level":"admin2","label":"Bruxelles, Bruxelles, Belgium","grid_id":"100017368"},{"population":"195000","lng":"2.63201","lat":"48.9735","level":"admin2","label":"Seine-et-Marne, \u00cele-de-France, France","grid_id":"100089653"},{"population":"1600","lng":"8.6789","lat":"50.0936","level":"admin2","label":"Frankfurt am Main, Hessen, Germany","grid_id":"100056316"},{"population":"39000","lng":"12.5285","lat":"41.8971","level":"admin2","label":"Roma, Lazio, Italy","grid_id":"100223034"},{"population":"26000","lng":"-1.91103","lat":"34.7015","level":"admin2","label":"Oujda Angad, Oriental, Morocco","grid_id":"100241809"}],"peopleid3":"14899"},"108945":{"name":"Berber, Southern Shilha","rop3":"108945","locations":[{"population":"6500","lng":"-7.3006","lat":"29.2942","level":"admin2","label":"Tata, Guelmim - Es-Semara, Morocco","grid_id":"100241793"},{"population":"147000","lng":"2.26676","lat":"48.918","level":"admin2","label":"Hauts-de-Seine, \u00cele-de-France, France","grid_id":"100089651"},{"population":"3386000","lng":"-8.18677","lat":"30.2814","level":"admin2","label":"Taroudannt, Souss - Massa - Dra\u00e2, Morocco","grid_id":"100241818"}],"peopleid3":"14911"},"110235":{"name":"Berber, Taznatit","rop3":"110235","locations":[{"population":"12000","lng":"0.10051","lat":"29.1496","level":"admin2","label":"Deldoul, Adrar, Algeria","grid_id":"100385241"}],"peopleid3":"15609"},"110042":{"name":"Berber, Tidikelt Tamzight","rop3":"110042","locations":[{"population":"1100","lng":"1.79388","lat":"26.9117","level":"admin2","label":"In Ghar, Tamanghasset, Algeria","grid_id":"100386491"}],"peopleid3":"15473"},"110182":{"name":"Berber, Tougourt","rop3":"110182","locations":[{"population":"9600","lng":"6.0497","lat":"33.3144","level":"admin2","label":"Sidi Slimane, Ouargla, Algeria","grid_id":"100386223"}],"peopleid3":"15572"},"102070":{"name":"Chenoua","rop3":"102070","locations":[{"population":"98000","lng":"2.19664","lat":"36.6073","level":"admin2","label":"Cherchel, Tipaza, Algeria","grid_id":"100386577"}],"peopleid3":"11321"},"115066":{"name":"Chinese, general","rop3":"115066","locations":[{"population":"36000","lng":"3.21938","lat":"36.6854","level":"admin2","label":"Dar El Beida, Alger, Algeria","grid_id":"100385332"},{"population":"50000","lng":"13.2234","lat":"-8.84398","level":"admin2","label":"Maianga, Luanda, Angola","grid_id":"100000478"},{"population":"3500","lng":"76.8512","lat":"43.222","level":"admin2","label":"Almaty (Alma-Ata), Almaty, Kazakhstan","grid_id":"100233175"},{"population":"35000","lng":"36.8165","lat":"-1.28332","level":"admin2","label":"Starehe, Nairobi, Kenya","grid_id":"100233600"},{"population":"1000","lng":"74.5905","lat":"42.875","level":"admin2","label":"Bi\u0161kek, Bi\u0161kek, Kyrgyzstan","grid_id":"100235155"},{"population":"700","lng":"80.0209","lat":"6.86817","level":"admin2","label":"Homagama, Colombo, Sri Lanka","grid_id":"100241124"},{"population":"2900","lng":"58.267","lat":"37.979","level":"admin2","label":"Quchan, Razavi Khorasan, Iran","grid_id":"100222661"},{"population":"33000","lng":"55.3221","lat":"25.2755","level":"admin2","label":"Sector 1, Dubai, United Arab Emirates","grid_id":"100001582"}],"peopleid3":"19206"},"103733":{"name":"Hausa","rop3":"103733","locations":[{"population":"12000","lng":"8.4774","lat":"26.5006","level":"admin2","label":"Illizi, Illizi, Algeria","grid_id":"100385873"},{"population":"1085000","lng":"2.12576","lat":"10.6907","level":"admin2","label":"K\u00e9rou, Atakora, Benin","grid_id":"100018032"},{"population":"3000","lng":"1.0908","lat":"12.4164","level":"admin2","label":"Gourma, Est, Burkina Faso","grid_id":"100018141"},{"population":"392000","lng":"11.3845","lat":"4.06638","level":"admin2","label":"Leki\u00e9, Centre, Cameroon","grid_id":"100053864"},{"population":"34000","lng":"15.612","lat":"5.92905","level":"admin2","label":"Bouar, Nana-Mamb\u00e9r\u00e9, Central African Republic","grid_id":"100041449"},{"population":"307000","lng":"16.9719","lat":"11.7476","level":"admin2","label":"Dababa, Hadjer-Lamis, Chad","grid_id":"100343183"},{"population":"11000","lng":"14.5716","lat":"1.65422","level":"admin2","label":"Semb\u00e9, Sangha, Republic of Congo","grid_id":"100054602"},{"population":"1096000","lng":"-4.0369","lat":"5.38351","level":"admin2","label":"NULL","grid_id":"100053510"},{"population":"28000","lng":"11.328","lat":"2.15489","level":"admin2","label":"Ebebiyin, Ki\u00e9-Ntem, Equatorial Guinea","grid_id":"100131845"},{"population":"16000","lng":"11.5053","lat":"2.07256","level":"admin2","label":"Ntem, Wouleu-Ntem, Gabon","grid_id":"100130475"},{"population":"11000","lng":"-14.233","lat":"13.3676","level":"admin2","label":"Wuli, Upper River, Gambia","grid_id":"100131767"},{"population":"296000","lng":"-1.10763","lat":"10.3534","level":"admin2","label":"West Mamprusi, Northern, Ghana","grid_id":"100131271"},{"population":"11377000","lng":"7.10659","lat":"13.4967","level":"admin2","label":"Madarounfa, Maradi, Niger","grid_id":"100253639"},{"population":"34783000","lng":"8.51012","lat":"11.9864","level":"admin2","label":"Gwale, Kano, Nigeria","grid_id":"100254218"},{"population":"116000","lng":"33.498","lat":"15.4884","level":"admin2","label":"Sharg En Nile, Khartoum, Sudan","grid_id":"100340315"},{"population":"23000","lng":"1.31869","lat":"9.32907","level":"admin2","label":"Assoli, Kara, Togo","grid_id":"100343581"}],"peopleid3":"12070"},"103948":{"name":"Idaksahak","rop3":"103948","locations":[{"population":"2500","lng":"-3.2866","lat":"29.4126","level":"admin2","label":"Tabelbala, B\u00e9char, Algeria","grid_id":"100385442"},{"population":"158000","lng":"2.54577","lat":"16.5862","level":"admin2","label":"M\u00e9naka, Gao, Mali","grid_id":"100247345"}],"peopleid3":"12178"},"103063":{"name":"Jew, French-speaking","rop3":"103063","locations":[{"population":"700","lng":"2.49053","lat":"31.6094","level":"admin2","label":"El Meniaa, Gharda\u00efa, Algeria","grid_id":"100385827"},{"population":"30000","lng":"4.66303","lat":"50.4011","level":"admin2","label":"Namur, Wallonie, Belgium","grid_id":"100017378"},{"population":"800","lng":"114.156","lat":"22.3304","level":"admin2","label":"Zhuhai, Guangdong, China","grid_id":"100050805"},{"population":"454000","lng":"2.37593","lat":"48.6799","level":"admin2","label":"Essonne, \u00cele-de-France, France","grid_id":"100089650"},{"population":"38000","lng":"34.8225","lat":"32.0884","level":"admin2","label":"Qalqilya, West Bank, Palestina","grid_id":"100314689"},{"population":"700","lng":"7.43362","lat":"43.7486","level":"admin2","label":"NULL","grid_id":"100089694"}],"peopleid3":"11764"},"106804":{"name":"Moroccan, Arabic-speaking","rop3":"106804","locations":[{"population":"181000","lng":"-0.625895","lat":"35.6728","level":"admin2","label":"Oran, Oran, Algeria","grid_id":"100386203"},{"population":"500","lng":"1.4756","lat":"42.5347","level":"admin2","label":"Lleida, Catalu\u00f1a, Spain","grid_id":"100074623"},{"population":"428000","lng":"4.46289","lat":"51.2295","level":"admin2","label":"Antwerpen, Vlaanderen, Belgium","grid_id":"100017369"},{"population":"77000","lng":"-73.631","lat":"45.487","level":"admin2","label":"Communaut\u00e9-Urbaine-de-Montr\u00e9al, Qu\u00e9bec, Canada","grid_id":"100041679"},{"population":"5400","lng":"12.5739","lat":"55.7155","level":"admin2","label":"K\u00f8benhavn, Hovedstaden, Denmark","grid_id":"100072593"},{"population":"1799000","lng":"31.2701","lat":"30.0699","level":"admin2","label":"Az-Zahir, Al Qahirah, Egypt","grid_id":"100074325"},{"population":"1000","lng":"24.9951","lat":"60.295","level":"admin2","label":"Uusimaa, Southern Finland, Finland","grid_id":"100089040"},{"population":"443000","lng":"5.38561","lat":"43.3049","level":"admin2","label":"NULL","grid_id":"100089695"},{"population":"47000","lng":"13.429","lat":"52.4632","level":"admin2","label":"Berlin, Berlin, Germany","grid_id":"100056291"},{"population":"1700","lng":"-5.34528","lat":"36.1204","level":"admin2","label":"C\u00e1diz, Andaluc\u00eda, Spain","grid_id":"100074596"},{"population":"298000","lng":"13.2719","lat":"32.8475","level":"admin1","label":"Tripoli, Libya","grid_id":"100241001"},{"population":"23940000","lng":"-7.59161","lat":"33.5742","level":"admin2","label":"Casablanca, Grand Casablanca, Morocco","grid_id":"100241788"},{"population":"46000","lng":"4.8967","lat":"52.3787","level":"admin2","label":"Amsterdam, Noord-Holland, Netherlands","grid_id":"100255045"},{"population":"8000","lng":"10.5446","lat":"59.8983","level":"admin2","label":"B\u00e6rum, Akershus, Norway","grid_id":"100255294"},{"population":"5900","lng":"-7.93039","lat":"37.0239","level":"admin2","label":"Faro, Faro, Portugal","grid_id":"100309994"},{"population":"780000","lng":"-3.61283","lat":"40.4452","level":"admin2","label":"Madrid, Comunidad de Madrid, Spain","grid_id":"100074627"},{"population":"266000","lng":"32.5933","lat":"15.4319","level":"admin2","label":"South Khartoum, Khartoum, Sudan","grid_id":"100340316"},{"population":"5600","lng":"18.0785","lat":"59.3096","level":"admin2","label":"Stockholm, Stockholm, Sweden","grid_id":"100342859"},{"population":"34000","lng":"-0.118568","lat":"51.554","level":"admin2","label":"Greater London, England, United Kingdom","grid_id":"100130518"},{"population":"99000","lng":"-73.9546","lat":"40.6958","level":"admin2","label":"Kings, New York, United States","grid_id":"100366104"},{"population":"8600","lng":"-13.1932","lat":"27.14","level":"admin2","label":"Tah, La\u00e2youne - Boujdour - Sakia El Hamra, Morocco","grid_id":"100241794"}],"peopleid3":"13819"},"113933":{"name":"Ouargla","rop3":"113933","locations":[{"population":"22000","lng":"5.27286","lat":"31.9488","level":"admin2","label":"Sidi Khouiled, Ouargla, Algeria","grid_id":"100386222"}],"peopleid3":"18364"},"108512":{"name":"Saharawi","rop3":"108512","locations":[{"population":"220000","lng":"-8.14638","lat":"27.6741","level":"admin2","label":"NA (Zag), Guelmim - Es-Semara, Morocco","grid_id":"100241790"},{"population":"15000","lng":"2.4575","lat":"48.8129","level":"admin2","label":"Val-de-Marne, \u00cele-de-France, France","grid_id":"100089656"},{"population":"900","lng":"12.5225","lat":"32.0614","level":"admin2","label":"Ben Guerdane, M\u00e9denine, Tunisia","grid_id":"100351715"},{"population":"162000","lng":"-12.0448","lat":"27.8764","level":"admin2","label":"La\u00e2youne, La\u00e2youne - Boujdour - Sakia El Hamra, Morocco","grid_id":"100241794"},{"population":"257000","lng":"-13.1947","lat":"27.145","level":"admin2","label":"Tah, La\u00e2youne - Boujdour - Sakia El Hamra, Morocco","grid_id":"100241794"}],"peopleid3":"14639"},"109776":{"name":"Tuareg, Algerian","rop3":"109776","locations":[{"population":"136000","lng":"1.84671","lat":"28.1416","level":"admin2","label":"Tamekten, Adrar, Algeria","grid_id":"100385254"},{"population":"31000","lng":"28.8642","lat":"28.3551","level":"admin2","label":"Unorganized in Al Jizah, Al Jizah, Egypt","grid_id":"100074279"},{"population":"24000","lng":"7.98822","lat":"17.0986","level":"admin2","label":"Tchighozerine, Agadez, Niger","grid_id":"100253627"}],"peopleid3":"15226"},"110233":{"name":"Tuareg, Tahaggart","rop3":"110233","locations":[{"population":"43000","lng":"6.3768","lat":"22.4817","level":"admin2","label":"Arlit, Agadez, Niger","grid_id":"100253625"},{"population":"22000","lng":"11.6665","lat":"24.321","level":"admin2","label":"Djanet, Illizi, Algeria","grid_id":"100385872"},{"population":"48000","lng":"8.26233","lat":"20.7012","level":"admin2","label":"Arlit, Agadez, Niger","grid_id":"100253625"}],"peopleid3":"15608"},"104189":{"name":"Japanese","rop3":"104189","locations":[{"population":"1000","lng":"-170.71","lat":"-14.2768","level":"admin2","label":"Pago Pago, Eastern, American Samoa","grid_id":"100002806"},{"population":"37000","lng":"151.207","lat":"-33.8671","level":"admin2","label":"Sydney, New South Wales, Australia","grid_id":"100003047"},{"population":"4700","lng":"3.72567","lat":"51.0512","level":"admin2","label":"Oost-Vlaanderen, Vlaanderen, Belgium","grid_id":"100017371"},{"population":"57000","lng":"-122.963","lat":"49.2392","level":"admin2","label":"Greater Vancouver, British Columbia, Canada","grid_id":"100041517"},{"population":"7000","lng":"126.695","lat":"45.786","level":"admin2","label":"Harbin, Heilongjiang, China","grid_id":"100050845"},{"population":"13000","lng":"114.198","lat":"22.3895","level":"admin2","label":"Zhuhai, Guangdong, China","grid_id":"100050805"},{"population":"1800","lng":"12.6224","lat":"55.6203","level":"admin2","label":"T\u00e5rnby, Hovedstaden, Denmark","grid_id":"100072597"},{"population":"800","lng":"-61.379","lat":"15.3046","level":"admin2","label":"Macouba, Le Trinit\u00e9, Martinique","grid_id":"100249843"},{"population":"1700","lng":"-69.956","lat":"18.4963","level":"admin2","label":"Distrito Nacional, Distrito Nacional, Dominican Republic","grid_id":"100072732"},{"population":"1100","lng":"24.9966","lat":"60.2704","level":"admin2","label":"Uusimaa, Southern Finland, Finland","grid_id":"100089040"},{"population":"30000","lng":"2.34068","lat":"48.9184","level":"admin2","label":"Seine-Saint-Denis, \u00cele-de-France, France","grid_id":"100089654"},{"population":"25000","lng":"11.5962","lat":"48.1459","level":"admin2","label":"M\ufffdnchen (Kreisfreie Stadt), Bayern, Germany","grid_id":"100056248"},{"population":"1100","lng":"23.7249","lat":"37.94","level":"admin2","label":"Attica, Attica, Greece","grid_id":"100131876"},{"population":"2700","lng":"144.778","lat":"13.4991","level":"admin1","label":"Tamuning, Guam","grid_id":"100132644"},{"population":"14000","lng":"106.758","lat":"-6.13851","level":"admin2","label":"Jakarta Barat, Jakarta Raya, Indonesia","grid_id":"100134708"},{"population":"6300","lng":"12.4702","lat":"41.8864","level":"admin2","label":"Roma, Lazio, Italy","grid_id":"100223034"},{"population":"120880000","lng":"136.469","lat":"35.3508","level":"admin2","label":"Sekigahara, Gifu, Japan","grid_id":"100231725"},{"population":"52000","lng":"127.004","lat":"37.5657","level":"admin2","label":"Jongro, Seoul, South Korea","grid_id":"100238801"},{"population":"15000","lng":"101.729","lat":"3.1125","level":"admin2","label":"Kuala Lumpur, Kuala Lumpur, Malaysia","grid_id":"100253326"},{"population":"400","lng":"171.34","lat":"7.08021","level":"admin0","label":"Marshall Islands","grid_id":"100247244"},{"population":"51000","lng":"-99.1332","lat":"19.3724","level":"admin2","label":"Cuauht\u00e9moc, Distrito Federal, Mexico","grid_id":"100245643"},{"population":"800","lng":"158.212","lat":"6.95491","level":"admin1","label":"Pohnpei, Micronesia","grid_id":"100130429"},{"population":"5400","lng":"4.9349","lat":"52.3622","level":"admin2","label":"Amsterdam, Noord-Holland, Netherlands","grid_id":"100255045"},{"population":"15000","lng":"174.766","lat":"-36.8474","level":"admin2","label":"Auckland, Auckland, New Zealand","grid_id":"100259842"},{"population":"900","lng":"145.778","lat":"15.1692","level":"admin1","label":"Saipan, Northern Mariana Islands","grid_id":"100249198"},{"population":"2100","lng":"-79.4953","lat":"9.00342","level":"admin2","label":"Panam\u00e1, Panam\u00e1, Panama","grid_id":"100260233"},{"population":"6500","lng":"-57.6216","lat":"-25.2889","level":"admin2","label":"Asunci\u00f3n, Asunci\u00f3n, Paraguay","grid_id":"100314481"},{"population":"155000","lng":"-77.0586","lat":"-11.8619","level":"admin2","label":"Lima, Lima Province, Peru","grid_id":"100261015"},{"population":"4500","lng":"121.01","lat":"14.5844","level":"admin2","label":"Manila, Metropolitan Manila, Philippines","grid_id":"100263936"},{"population":"700","lng":"-9.13025","lat":"38.7388","level":"admin2","label":"Lisboa, Lisboa, Portugal","grid_id":"100310042"},{"population":"900","lng":"37.6221","lat":"55.8617","level":"admin2","label":"North-Eastern, Moscow City, Russia","grid_id":"100318919"},{"population":"39000","lng":"103.777","lat":"1.34883","level":"admin2","label":"Johor Baharu, Johor, Malaysia","grid_id":"100253295"},{"population":"5500","lng":"-3.69523","lat":"40.4908","level":"admin2","label":"Madrid, Comunidad de Madrid, Spain","grid_id":"100074627"},{"population":"2300","lng":"80.0209","lat":"6.86817","level":"admin2","label":"Homagama, Colombo, Sri Lanka","grid_id":"100241124"},{"population":"5200","lng":"8.53908","lat":"47.3346","level":"admin2","label":"Horgen, Z\u00fcrich, Switzerland","grid_id":"100047550"},{"population":"14000","lng":"121.344","lat":"25.1014","level":"admin2","label":"New Taipei, New Taipei, Taiwan","grid_id":"100352882"},{"population":"71000","lng":"100.534","lat":"13.8344","level":"admin2","label":"Bang Su, Bangkok Metropolis, Thailand","grid_id":"100343699"},{"population":"4000","lng":"54.3683","lat":"24.5192","level":"admin2","label":"Abu Dhabi, Abu Dhabi, United Arab Emirates","grid_id":"100001535"},{"population":"30000","lng":"-0.124175","lat":"51.4727","level":"admin2","label":"Greater London, England, United Kingdom","grid_id":"100130518"},{"population":"839000","lng":"-122.442","lat":"48.526","level":"admin2","label":"Skagit, Washington, United States","grid_id":"100367236"},{"population":"9600","lng":"105.814","lat":"21.0101","level":"admin2","label":"\u0110\u1ed1ng \u0110a, H\u00e0 N\u1ed9i, Vietnam","grid_id":"100368329"}],"peopleid3":"12322"},"115527":{"name":"South Asian, general","rop3":"115527","locations":[{"population":"600","lng":"1.53237","lat":"42.4806","level":"admin2","label":"Lleida, Catalu\u00f1a, Spain","grid_id":"100074623"},{"population":"23000","lng":"16.5189","lat":"48.263","level":"admin2","label":"Wien, Wien, Austria","grid_id":"100003596"},{"population":"4000","lng":"-59.6195","lat":"13.1211","level":"admin2","label":"Sainte-Anne, Le Marin, Martinique","grid_id":"100249835"},{"population":"32000","lng":"4.25068","lat":"50.8447","level":"admin2","label":"Vlaams Brabant, Vlaanderen, Belgium","grid_id":"100017372"},{"population":"42000","lng":"113.998","lat":"22.4581","level":"admin2","label":"Shenzhen, Guangdong, China","grid_id":"100050799"},{"population":"190000","lng":"15.2738","lat":"-4.3433","level":"admin2","label":"Kinshasa, Kinshasa, Democratic Republic of the Congo","grid_id":"100054383"},{"population":"2600","lng":"-5.27851","lat":"6.79634","level":"admin2","label":"NULL","grid_id":"100053540"},{"population":"34000","lng":"-82.3669","lat":"23.0995","level":"admin2","label":"Cerro, Ciudad de la Habana, Cuba","grid_id":"100055870"},{"population":"15000","lng":"33.1964","lat":"34.964","level":"admin1","label":"Nicosia, Cyprus","grid_id":"100056018"},{"population":"53000","lng":"12.4925","lat":"55.6633","level":"admin2","label":"K\u00f8benhavn, Hovedstaden, Denmark","grid_id":"100072593"},{"population":"2000","lng":"43.1565","lat":"11.5723","level":"admin2","label":"Djibouti, Djibouti, Djibouti","grid_id":"100072545"},{"population":"4900","lng":"31.3397","lat":"30.1463","level":"admin2","label":"Al-Marj, Al Qahirah, Egypt","grid_id":"100074313"},{"population":"1400","lng":"8.76237","lat":"3.61046","level":"admin2","label":"Baney, Bioko Norte, Equatorial Guinea","grid_id":"100131834"},{"population":"11000","lng":"24.9473","lat":"60.1908","level":"admin2","label":"Uusimaa, Southern Finland, Finland","grid_id":"100089040"},{"population":"275000","lng":"2.3873","lat":"48.8966","level":"admin2","label":"Paris, \u00cele-de-France, France","grid_id":"100089652"},{"population":"195000","lng":"7.81878","lat":"51.681","level":"admin2","label":"Hamm, Nordrhein-Westfalen, Germany","grid_id":"100056409"},{"population":"13000","lng":"-0.182642","lat":"5.55428","level":"admin2","label":"Accra, Greater Accra, Ghana","grid_id":"100131250"},{"population":"700","lng":"-5.35427","lat":"36.1402","level":"admin2","label":"C\u00e1diz, Andaluc\u00eda, Spain","grid_id":"100074596"},{"population":"120000","lng":"23.7436","lat":"37.9735","level":"admin2","label":"Attica, Attica, Greece","grid_id":"100131876"},{"population":"600","lng":"-21.8209","lat":"64.12","level":"admin2","label":"Reykjav\u00edk, H\u00f6fu\u00f0borgarsv\u00e6\u00f0i, Iceland","grid_id":"100222895"},{"population":"32000","lng":"-6.28011","lat":"53.3412","level":"admin2","label":"Aleutians West, Alaska, United States","grid_id":"100364319"},{"population":"425000","lng":"12.4781","lat":"41.8959","level":"admin2","label":"Roma, Lazio, Italy","grid_id":"100223034"},{"population":"1800","lng":"76.9","lat":"43.3","level":"admin2","label":"Almaty (Alma-Ata), Almaty, Kazakhstan","grid_id":"100233175"},{"population":"101000","lng":"126.862","lat":"37.5342","level":"admin2","label":"Gangseo, Seoul, South Korea","grid_id":"100238796"},{"population":"1333000","lng":"48.0005","lat":"29.3238","level":"admin2","label":"Al Faw, Al-Basrah, Iraq","grid_id":"100222747"},{"population":"1300","lng":"6.11372","lat":"49.6104","level":"admin2","label":"Luxembourg, Luxembourg, Luxembourg","grid_id":"100241460"},{"population":"5000","lng":"73.5055","lat":"4.17421","level":"admin0","label":"Maldives","grid_id":"100245356"},{"population":"223000","lng":"4.88379","lat":"52.352","level":"admin2","label":"Amsterdam, Noord-Holland, Netherlands","grid_id":"100255045"},{"population":"162000","lng":"173.155","lat":"-42.6093","level":"admin2","label":"Hurunui, Canterbury, New Zealand","grid_id":"100259852"},{"population":"27000","lng":"10.7837","lat":"59.9329","level":"admin2","label":"Oslo, Oslo, Norway","grid_id":"100255578"},{"population":"4400","lng":"121","lat":"14.5826","level":"admin2","label":"Manila, Metropolitan Manila, Philippines","grid_id":"100263936"},{"population":"3300","lng":"21.0033","lat":"52.1955","level":"admin2","label":"Warszawa, Mazowieckie, Poland","grid_id":"100306881"},{"population":"79000","lng":"-9.22484","lat":"38.8074","level":"admin2","label":"Odivelas, Lisboa, Portugal","grid_id":"100310046"},{"population":"1500","lng":"26.0132","lat":"44.4318","level":"admin2","label":"Municipiul Bucuresti, Bucharest, Romania","grid_id":"100315435"},{"population":"36000","lng":"37.426","lat":"55.7151","level":"admin2","label":"Western, Moscow City, Russia","grid_id":"100318925"},{"population":"15000","lng":"-13.2441","lat":"8.48235","level":"admin2","label":"Western Urban, Western, Sierra Leone","grid_id":"100341454"},{"population":"22000","lng":"45.3298","lat":"2.03372","level":"admin2","label":"Mogadisho, Banaadir, Somalia","grid_id":"100341927"},{"population":"126000","lng":"-2.98107","lat":"40.0359","level":"admin2","label":"Cuenca, Castilla-La Mancha, Spain","grid_id":"100074609"},{"population":"61000","lng":"18.0894","lat":"59.3445","level":"admin2","label":"Stockholm, Stockholm, Sweden","grid_id":"100342859"},{"population":"76000","lng":"8.55823","lat":"47.3624","level":"admin2","label":"Z\u00fcrich, Z\u00fcrich, Switzerland","grid_id":"100047556"},{"population":"3937000","lng":"54.3954","lat":"24.4358","level":"admin2","label":"Abu Dhabi, Abu Dhabi, United Arab Emirates","grid_id":"100001535"},{"population":"3059000","lng":"-0.209354","lat":"51.481","level":"admin2","label":"Greater London, England, United Kingdom","grid_id":"100130518"},{"population":"1300","lng":"69.2225","lat":"41.2477","level":"admin2","label":"Tashkent City, Tashkent City, Uzbekistan","grid_id":"100367574"},{"population":"316000","lng":"44.1936","lat":"15.3381","level":"admin2","label":"Al Wahdah, Amanat Al Asimah, Yemen","grid_id":"100380225"}],"peopleid3":"19211"},"109538":{"name":"Jew, Spanish-speaking","rop3":"109538","locations":[{"population":"182000","lng":"-58.7488","lat":"-34.5227","level":"admin2","label":"General Sarmiento, Buenos Aires, Argentina","grid_id":"100002339"},{"population":"500","lng":"-68.1704","lat":"-16.7133","level":"admin2","label":"Ingavi, La Paz, Bolivia","grid_id":"100024975"},{"population":"19000","lng":"-71.27","lat":"-34.0145","level":"admin2","label":"Melipilla, Regi\u00f3n Metropolitana de Santiago, Chile","grid_id":"100050398"},{"population":"2400","lng":"-74.1273","lat":"4.63195","level":"admin2","label":"Santaf\u00e9 de Bogot\u00e1, Cundinamarca, Colombia","grid_id":"100055205"},{"population":"2600","lng":"-83.996","lat":"9.93869","level":"admin2","label":"La Uni\u00f3n, Cartago, Costa Rica","grid_id":"100055757"},{"population":"500","lng":"-82.3968","lat":"23.1363","level":"admin2","label":"Plaza de la Revoluci\u00f3n, Ciudad de la Habana, Cuba","grid_id":"100055879"},{"population":"600","lng":"-78.3625","lat":"-0.376469","level":"admin2","label":"Quito, Pichincha, Ecuador","grid_id":"100073071"},{"population":"1000","lng":"-90.0815","lat":"16.2504","level":"admin2","label":"Sayaxch\u00e9, Pet\u00e9n, Guatemala","grid_id":"100132432"},{"population":"40000","lng":"-99.4055","lat":"19.4861","level":"admin2","label":"Jilotzingo, M\u00e9xico, Mexico","grid_id":"100246069"},{"population":"11000","lng":"-79.517","lat":"9.003","level":"admin2","label":"Panam\u00e1, Panam\u00e1, Panama","grid_id":"100260233"},{"population":"1100","lng":"-57.6296","lat":"-25.0155","level":"admin2","label":"Villa Hayes, Presidente Hayes, Paraguay","grid_id":"100314659"},{"population":"2000","lng":"-77.0317","lat":"-11.7968","level":"admin2","label":"Lima, Lima Province, Peru","grid_id":"100261015"},{"population":"1100","lng":"-66.4258","lat":"18.2369","level":"admin2","label":"West End, Saint Thomas, Virgin Islands, U.S.","grid_id":"100367976"},{"population":"11000","lng":"-2.98233","lat":"40.0321","level":"admin2","label":"Cuenca, Castilla-La Mancha, Spain","grid_id":"100074609"},{"population":"17000","lng":"-56.1507","lat":"-34.8759","level":"admin2","label":"n.a354, Montevideo, Uruguay","grid_id":"100364101"},{"population":"6800","lng":"-66.8044","lat":"10.5039","level":"admin2","label":"Sucre, Miranda, Venezuela","grid_id":"100367806"}],"peopleid3":"15080"},"100675":{"name":"Azerbaijani","rop3":"100675","locations":[{"population":"15000","lng":"45.549","lat":"40.3879","level":"admin2","label":"G\u0259d\u0259b\u0259y, Ganja-Qazakh, Azerbaijan","grid_id":"100005763"},{"population":"8738000","lng":"47.6871","lat":"40.2128","level":"admin2","label":"Z\u0259rdab, Aran, Azerbaijan","grid_id":"100005756"},{"population":"5400","lng":"28.7362","lat":"53.4856","level":"admin2","label":"Asipovichy, Mahilyow, Belarus","grid_id":"100024845"},{"population":"1100","lng":"4.50287","lat":"51.2513","level":"admin2","label":"Antwerpen, Vlaanderen, Belgium","grid_id":"100017369"},{"population":"900","lng":"24.7722","lat":"59.4385","level":"admin2","label":"Tallinn, Harju, Estonia","grid_id":"100083354"},{"population":"221000","lng":"44.4492","lat":"41.3625","level":"admin2","label":"Bolnisi, Kvemo Kartli, Georgia","grid_id":"100131119"},